{
  "batch": "Auctions 2026 Expansion",
  "events": [
    {
      "name": "Mecum Kissimmee 2026",
      "event_type": "auction",
      "city": "Kissimmee",
      "state": "FL",
      "venue_name": "Osceola Heritage Park",
      "address": "1875 Silver Spur Ln",
      "zip": "34744",
      "latitude": 28.3058,
      "longitude": -81.4162,
      "start_date": "2026-01-06",
      "end_date": "2026-01-18",
      "source_url": "https://www.mecum.com/auctions/kissimmee-2026/",
      "cost_text": "$30-100",
      "is_free": false,
      "scope": "national",
      "featured": true,
      "description": "World's largest collector car auction. 4,500+ vehicles including 48 Ferraris."
    },
    {
      "name": "Barrett-Jackson Scottsdale 2026",
      "event_type": "auction",
      "city": "Scottsdale",
      "state": "AZ",
      "venue_name": "WestWorld of Scottsdale",
      "address": "16601 N Pima Rd",
      "zip": "85260",
      "latitude": 33.6251,
      "longitude": -111.8989,
      "start_date": "2026-01-18",
      "end_date": "2026-01-26",
      "source_url": "https://www.barrett-jackson.com/2026-scottsdale",
      "cost_text": "$50-200",
      "is_free": false,
      "scope": "national",
      "featured": true,
      "description": "World's greatest collector car auction. Kicks off auction season in style."
    },
    {
      "name": "RM Sotheby's Amelia Island 2026",
      "event_type": "auction",
      "city": "Amelia Island",
      "state": "FL",
      "venue_name": "The Ritz-Carlton, Amelia Island",
      "address": "4750 Amelia Island Pkwy",
      "zip": "32034",
      "latitude": 30.5766,
      "longitude": -81.4423,
      "start_date": "2026-03-06",
      "end_date": "2026-03-07",
      "source_url": "https://rmsothebys.com/",
      "cost_text": "$100-300",
      "is_free": false,
      "scope": "national",
      "featured": true,
      "description": "RM Sotheby's Amelia Island auction during Amelia Concours weekend."
    },
    {
      "name": "Mecum Houston 2026",
      "event_type": "auction",
      "city": "Houston",
      "state": "TX",
      "venue_name": "NRG Center",
      "address": "1 NRG Park",
      "zip": "77054",
      "latitude": 29.6847,
      "longitude": -95.4107,
      "start_date": "2026-04-10",
      "end_date": "2026-04-11",
      "source_url": "https://www.mecum.com/",
      "cost_text": "$30-100",
      "is_free": false,
      "scope": "national",
      "featured": true,
      "description": "Mecum Houston auction featuring diverse collector cars."
    },
    {
      "name": "Barrett-Jackson Palm Beach 2026",
      "event_type": "auction",
      "city": "West Palm Beach",
      "state": "FL",
      "venue_name": "South Florida Fairgrounds",
      "address": "9067 Southern Blvd",
      "zip": "33411",
      "latitude": 26.6806,
      "longitude": -80.1842,
      "start_date": "2026-04-17",
      "end_date": "2026-04-19",
      "source_url": "https://www.barrett-jackson.com/2026-palm-beach",
      "cost_text": "$40-150",
      "is_free": false,
      "scope": "national",
      "featured": true,
      "description": "Barrett-Jackson Palm Beach auction. Spring collector car event."
    },
    {
      "name": "Mecum Indianapolis 2026",
      "event_type": "auction",
      "city": "Indianapolis",
      "state": "IN",
      "venue_name": "Indiana State Fairgrounds",
      "address": "1202 E 38th St",
      "zip": "46205",
      "latitude": 39.8272,
      "longitude": -86.1289,
      "start_date": "2026-05-08",
      "end_date": "2026-05-16",
      "source_url": "https://www.mecum.com/",
      "cost_text": "$30-100",
      "is_free": false,
      "scope": "national",
      "featured": true,
      "description": "Mecum Indianapolis. Major spring auction at Indiana State Fairgrounds."
    },
    {
      "name": "Barrett-Jackson Columbus 2026",
      "event_type": "auction",
      "city": "Columbus",
      "state": "OH",
      "venue_name": "Ohio Expo Center",
      "address": "717 E 17th Ave",
      "zip": "43211",
      "latitude": 39.9950,
      "longitude": -82.9875,
      "start_date": "2026-06-25",
      "end_date": "2026-06-27",
      "source_url": "https://barrettjacksonvip.com/",
      "cost_text": "$40-150",
      "is_free": false,
      "scope": "national",
      "featured": true,
      "description": "Barrett-Jackson Columbus auction. Summer collector car event."
    },
    {
      "name": "RM Sotheby's Monterey 2026",
      "event_type": "auction",
      "city": "Monterey",
      "state": "CA",
      "venue_name": "Monterey Conference Center",
      "address": "1 Portola Plaza",
      "zip": "93940",
      "latitude": 36.6002,
      "longitude": -121.8947,
      "start_date": "2026-08-14",
      "end_date": "2026-08-15",
      "source_url": "https://rmsothebys.com/",
      "cost_text": "$200-500",
      "is_free": false,
      "scope": "national",
      "featured": true,
      "description": "RM Sotheby's Monterey during Pebble Beach week. Premier collector car auction."
    },
    {
      "name": "Gooding & Company Pebble Beach 2026",
      "event_type": "auction",
      "city": "Pebble Beach",
      "state": "CA",
      "venue_name": "Pebble Beach Equestrian Center",
      "address": "3200 Portola Road",
      "zip": "93953",
      "latitude": 36.5814,
      "longitude": -121.9492,
      "start_date": "2026-08-14",
      "end_date": "2026-08-15",
      "source_url": "https://www.goodingco.com/",
      "cost_text": "$200-500",
      "is_free": false,
      "scope": "national",
      "featured": true,
      "description": "Gooding & Company Pebble Beach auction during Monterey Car Week."
    },
    {
      "name": "Bonhams Quail Lodge Auction 2026",
      "event_type": "auction",
      "city": "Carmel",
      "state": "CA",
      "venue_name": "Quail Lodge & Golf Club",
      "address": "8205 Valley Greens Dr",
      "zip": "93923",
      "latitude": 36.5072,
      "longitude": -121.8586,
      "start_date": "2026-08-14",
      "end_date": "2026-08-14",
      "source_url": "https://www.bonhams.com/",
      "cost_text": "$150-400",
      "is_free": false,
      "scope": "national",
      "featured": true,
      "description": "Bonhams Quail Lodge auction during Monterey Car Week."
    }
  ]
}







