{
  "batch": "Autocross 2026 Expansion",
  "events": [
    {
      "name": "SCCA Solo Red Hills National Tour 2026",
      "event_type": "autocross",
      "city": "Moultrie",
      "state": "GA",
      "venue_name": "Spence Field",
      "address": "Spence Field",
      "zip": "31788",
      "latitude": 31.0889,
      "longitude": -83.7008,
      "start_date": "2026-03-13",
      "end_date": "2026-03-15",
      "source_url": "https://www.scca.com/pages/championship-tour",
      "cost_text": "$100-200",
      "is_free": false,
      "scope": "national",
      "featured": true,
      "description": "SCCA Solo National Tour at Red Hills. Season opener autocross event."
    },
    {
      "name": "SCCA Solo Charlotte National Tour 2026",
      "event_type": "autocross",
      "city": "Charlotte",
      "state": "NC",
      "venue_name": "zMax Dragway",
      "address": "6570 Bruton Smith Blvd",
      "zip": "28027",
      "latitude": 35.3528,
      "longitude": -80.6831,
      "start_date": "2026-03-27",
      "end_date": "2026-03-29",
      "source_url": "https://www.scca.com/pages/championship-tour",
      "cost_text": "$100-200",
      "is_free": false,
      "scope": "national",
      "featured": true,
      "description": "SCCA Solo National Tour at zMax Dragway Charlotte."
    },
    {
      "name": "SCCA Solo South Texas National Tour 2026",
      "event_type": "autocross",
      "city": "Beeville",
      "state": "TX",
      "venue_name": "Naval Air Station Chase Field",
      "address": "NAS Chase Field",
      "zip": "78102",
      "latitude": 28.3622,
      "longitude": -97.6633,
      "start_date": "2026-04-24",
      "end_date": "2026-04-26",
      "source_url": "https://www.scca.com/pages/championship-tour",
      "cost_text": "$100-200",
      "is_free": false,
      "scope": "national",
      "featured": true,
      "description": "SCCA Solo National Tour in South Texas at NAS Chase Field."
    },
    {
      "name": "SCCA Solo Lincoln National Tour 2026",
      "event_type": "autocross",
      "city": "Lincoln",
      "state": "NE",
      "venue_name": "Lincoln Air Park",
      "address": "Lincoln Air Park",
      "zip": "68524",
      "latitude": 40.8556,
      "longitude": -96.7575,
      "start_date": "2026-05-24",
      "end_date": "2026-05-25",
      "source_url": "https://www.scca.com/pages/championship-tour",
      "cost_text": "$100-200",
      "is_free": false,
      "scope": "national",
      "featured": true,
      "description": "SCCA Solo National Tour at Lincoln Air Park."
    },
    {
      "name": "SCCA Solo Crows Landing National Tour 2026",
      "event_type": "autocross",
      "city": "Crows Landing",
      "state": "CA",
      "venue_name": "Crows Landing",
      "address": "Crows Landing",
      "zip": "95313",
      "latitude": 37.4319,
      "longitude": -121.0567,
      "start_date": "2026-06-12",
      "end_date": "2026-06-14",
      "source_url": "https://www.scca.com/pages/championship-tour",
      "cost_text": "$100-200",
      "is_free": false,
      "scope": "national",
      "featured": true,
      "description": "SCCA Solo National Tour at Crows Landing in California."
    },
    {
      "name": "SCCA Solo Brunswick National Tour 2026",
      "event_type": "autocross",
      "city": "Brunswick",
      "state": "ME",
      "venue_name": "Brunswick Executive Airport",
      "address": "Brunswick Executive Airport",
      "zip": "04011",
      "latitude": 43.8922,
      "longitude": -69.9336,
      "start_date": "2026-06-19",
      "end_date": "2026-06-21",
      "source_url": "https://www.scca.com/pages/championship-tour",
      "cost_text": "$100-200",
      "is_free": false,
      "scope": "national",
      "featured": false,
      "description": "SCCA Solo National Tour at Brunswick Executive Airport (Tentative)."
    },
    {
      "name": "SCCA Solo Bristol National Tour 2026",
      "event_type": "autocross",
      "city": "Bristol",
      "state": "TN",
      "venue_name": "Bristol Motor Speedway",
      "address": "151 Speedway Blvd",
      "zip": "37620",
      "latitude": 36.5156,
      "longitude": -82.2567,
      "start_date": "2026-07-03",
      "end_date": "2026-07-05",
      "source_url": "https://www.scca.com/pages/championship-tour",
      "cost_text": "$100-200",
      "is_free": false,
      "scope": "national",
      "featured": true,
      "description": "SCCA Solo National Tour at Bristol Motor Speedway. July 4th weekend event."
    },
    {
      "name": "SCCA Solo Packwood National Tour 2026",
      "event_type": "autocross",
      "city": "Packwood",
      "state": "WA",
      "venue_name": "Hampton Mills",
      "address": "Hampton Mills",
      "zip": "98361",
      "latitude": 46.6064,
      "longitude": -121.6736,
      "start_date": "2026-07-17",
      "end_date": "2026-07-19",
      "source_url": "https://www.scca.com/pages/championship-tour",
      "cost_text": "$100-200",
      "is_free": false,
      "scope": "national",
      "featured": false,
      "description": "SCCA Solo National Tour at Packwood in Washington State."
    },
    {
      "name": "SCCA Solo Grissom National Tour 2026",
      "event_type": "autocross",
      "city": "Bunker Hill",
      "state": "IN",
      "venue_name": "Grissom Aeroplex",
      "address": "Grissom Aeroplex",
      "zip": "46914",
      "latitude": 40.6481,
      "longitude": -86.1522,
      "start_date": "2026-07-17",
      "end_date": "2026-07-19",
      "source_url": "https://www.scca.com/pages/championship-tour",
      "cost_text": "$100-200",
      "is_free": false,
      "scope": "national",
      "featured": false,
      "description": "SCCA Solo National Tour at Grissom Aeroplex in Indiana."
    },
    {
      "name": "SCCA Solo Finger Lakes National Tour 2026",
      "event_type": "autocross",
      "city": "Romulus",
      "state": "NY",
      "venue_name": "Seneca Army Depot",
      "address": "Seneca Army Depot",
      "zip": "14541",
      "latitude": 42.7389,
      "longitude": -76.8450,
      "start_date": "2026-07-31",
      "end_date": "2026-08-02",
      "source_url": "https://www.scca.com/pages/championship-tour",
      "cost_text": "$100-200",
      "is_free": false,
      "scope": "national",
      "featured": false,
      "description": "SCCA Solo National Tour Finger Lakes at Seneca Army Depot (Tentative)."
    },
    {
      "name": "SCCA Solo National Championships 2026",
      "event_type": "autocross",
      "city": "Lincoln",
      "state": "NE",
      "venue_name": "Lincoln Air Park",
      "address": "Lincoln Air Park",
      "zip": "68524",
      "latitude": 40.8556,
      "longitude": -96.7575,
      "start_date": "2026-09-07",
      "end_date": "2026-09-11",
      "source_url": "https://www.scca.com/pages/championship-tour",
      "cost_text": "$200-400",
      "is_free": false,
      "scope": "national",
      "featured": true,
      "description": "SCCA Solo National Championships. The Super Bowl of autocross."
    }
  ]
}









