{
  "description": "SCCA Solo (Autocross) National Tour and regional events for 2026",
  "source": "SCCA official schedule, research December 2024",
  "updated": "2024-12-17",
  "events": [
    {
      "name": "SCCA Solo Nationals 2026",
      "event_type": "autocross",
      "city": "Lincoln",
      "state": "NE",
      "start_date": "2026-09-07",
      "end_date": "2026-09-11",
      "venue_name": "Lincoln Air Park",
      "address": "3901 W Luke St",
      "zip": "68524",
      "latitude": 40.8507,
      "longitude": -96.7714,
      "source_url": "https://www.scca.com/pages/championship-tour",
      "cost_text": "$200-400",
      "is_free": false,
      "scope": "national",
      "featured": true,
      "description": "SCCA Solo National Championships. Largest autocross in the world."
    },
    {
      "name": "Tire Rack SCCA Brunswick National Tour",
      "event_type": "autocross",
      "city": "Brunswick",
      "state": "ME",
      "start_date": "2026-06-19",
      "end_date": "2026-06-21",
      "venue_name": "Brunswick Executive Airport",
      "address": "181 Commerce Way",
      "zip": "04011",
      "latitude": 43.8925,
      "longitude": -69.9353,
      "source_url": "https://www.scca.com/pages/championship-tour",
      "cost_text": "$100-150",
      "is_free": false,
      "scope": "national",
      "featured": false,
      "description": "New England stop on the SCCA National Tour."
    },
    {
      "name": "Tire Rack SCCA Bristol National Tour",
      "event_type": "autocross",
      "city": "Bristol",
      "state": "TN",
      "start_date": "2026-07-03",
      "end_date": "2026-07-05",
      "venue_name": "Bristol Motor Speedway",
      "address": "151 Speedway Blvd",
      "zip": "37620",
      "latitude": 36.5158,
      "longitude": -82.2561,
      "source_url": "https://www.scca.com/pages/championship-tour",
      "cost_text": "$100-150",
      "is_free": false,
      "scope": "national",
      "featured": false,
      "description": "Southeast stop at Bristol Motor Speedway."
    },
    {
      "name": "Tire Rack SCCA Packwood National Tour",
      "event_type": "autocross",
      "city": "Packwood",
      "state": "WA",
      "start_date": "2026-07-17",
      "end_date": "2026-07-19",
      "venue_name": "Hampton Mills",
      "address": "12944 US-12",
      "zip": "98361",
      "latitude": 46.6089,
      "longitude": -121.6747,
      "source_url": "https://www.scca.com/pages/championship-tour",
      "cost_text": "$100-150",
      "is_free": false,
      "scope": "national",
      "featured": false,
      "description": "Pacific Northwest National Tour stop."
    },
    {
      "name": "Tire Rack SCCA Grissom National Tour",
      "event_type": "autocross",
      "city": "Bunker Hill",
      "state": "IN",
      "start_date": "2026-07-17",
      "end_date": "2026-07-19",
      "venue_name": "Grissom Aeroplex",
      "address": "1470 Hoosier Blvd",
      "zip": "46914",
      "latitude": 40.6481,
      "longitude": -86.1525,
      "source_url": "https://www.scca.com/pages/championship-tour/grissom",
      "cost_text": "$100-150",
      "is_free": false,
      "scope": "national",
      "featured": false,
      "description": "Midwest National Tour stop at Grissom."
    },
    {
      "name": "Tire Rack SCCA Finger Lakes National Tour",
      "event_type": "autocross",
      "city": "Romulus",
      "state": "NY",
      "start_date": "2026-07-31",
      "end_date": "2026-08-02",
      "venue_name": "Seneca Army Depot",
      "address": "5786 State Route 96",
      "zip": "14541",
      "latitude": 42.7383,
      "longitude": -76.8356,
      "source_url": "https://www.scca.com/pages/championship-tour",
      "cost_text": "$100-150",
      "is_free": false,
      "scope": "national",
      "featured": false,
      "description": "New York National Tour stop."
    },
    {
      "name": "WDCR SCCA Autocross #1",
      "event_type": "autocross",
      "city": "Waldorf",
      "state": "MD",
      "start_date": "2026-04-12",
      "end_date": "2026-04-12",
      "venue_name": "Regency Furniture Stadium",
      "address": "11765 St Linus Dr",
      "zip": "20602",
      "latitude": 38.6047,
      "longitude": -76.9367,
      "source_url": "https://www.wdcr-scca.org",
      "cost_text": "$50-75",
      "is_free": false,
      "scope": "regional",
      "featured": false,
      "description": "Washington DC Region SCCA autocross."
    },
    {
      "name": "WDCR SCCA Autocross - Summit Point",
      "event_type": "autocross",
      "city": "Summit Point",
      "state": "WV",
      "start_date": "2026-07-26",
      "end_date": "2026-07-26",
      "venue_name": "Summit Point Motorsports Park",
      "address": "237 Summit Point Rd",
      "zip": "25446",
      "latitude": 39.2278,
      "longitude": -77.9703,
      "source_url": "https://www.wdcr-scca.org",
      "cost_text": "$50-75",
      "is_free": false,
      "scope": "regional",
      "featured": false,
      "description": "DC Region autocross at Summit Point."
    },
    {
      "name": "Buccaneer Region SCCA Autocross Jacksonville",
      "event_type": "autocross",
      "city": "Jacksonville",
      "state": "FL",
      "start_date": "2026-01-31",
      "end_date": "2026-01-31",
      "venue_name": "Gainesville Airport",
      "address": "3880 NE 39th Ave",
      "zip": "32609",
      "latitude": 29.6910,
      "longitude": -82.2717,
      "source_url": "https://www.buccaneerregion.com",
      "cost_text": "$50-75",
      "is_free": false,
      "scope": "regional",
      "featured": false,
      "description": "Florida Buccaneer Region autocross event."
    },
    {
      "name": "Houston Region SCCA Practice #1",
      "event_type": "autocross",
      "city": "Houston",
      "state": "TX",
      "start_date": "2026-01-18",
      "end_date": "2026-01-18",
      "venue_name": "Houston Police Academy",
      "address": "17000 Aldine Westfield Rd",
      "zip": "77073",
      "latitude": 29.9669,
      "longitude": -95.3633,
      "source_url": "https://www.houscca.com",
      "cost_text": "$40-60",
      "is_free": false,
      "scope": "regional",
      "featured": false,
      "description": "Houston Region SCCA season opener."
    },
    {
      "name": "STL Region SCCA Autocross",
      "event_type": "autocross",
      "city": "St. Louis",
      "state": "MO",
      "start_date": "2026-04-19",
      "end_date": "2026-04-19",
      "venue_name": "Gateway Motorsports Park",
      "address": "700 Raceway Blvd",
      "zip": "62040",
      "latitude": 38.6539,
      "longitude": -90.1381,
      "source_url": "https://www.stlscca.org",
      "cost_text": "$50-75",
      "is_free": false,
      "scope": "regional",
      "featured": false,
      "description": "St. Louis Region SCCA autocross."
    },
    {
      "name": "SoCal SCCA Solo Championship Round 1",
      "event_type": "autocross",
      "city": "Fontana",
      "state": "CA",
      "start_date": "2026-02-08",
      "end_date": "2026-02-08",
      "venue_name": "Auto Club Speedway",
      "address": "9300 Cherry Ave",
      "zip": "92335",
      "latitude": 34.0889,
      "longitude": -117.5003,
      "source_url": "https://www.socalscca.org",
      "cost_text": "$50-75",
      "is_free": false,
      "scope": "regional",
      "featured": false,
      "description": "Southern California Region SCCA championship series."
    },
    {
      "name": "NorCal SCCA Solo Event",
      "event_type": "autocross",
      "city": "Marina",
      "state": "CA",
      "start_date": "2026-03-15",
      "end_date": "2026-03-15",
      "venue_name": "Marina Municipal Airport",
      "address": "3261 Imjin Rd",
      "zip": "93933",
      "latitude": 36.6836,
      "longitude": -121.7756,
      "source_url": "https://www.sfrscca.org",
      "cost_text": "$50-75",
      "is_free": false,
      "scope": "regional",
      "featured": false,
      "description": "San Francisco Region SCCA autocross."
    },
    {
      "name": "Arizona SCCA Solo Championship",
      "event_type": "autocross",
      "city": "Phoenix",
      "state": "AZ",
      "start_date": "2026-02-22",
      "end_date": "2026-02-22",
      "venue_name": "Phoenix Raceway",
      "address": "7602 Jimmie Johnson Dr",
      "zip": "85338",
      "latitude": 33.3752,
      "longitude": -112.3111,
      "source_url": "https://www.azscca.org",
      "cost_text": "$50-75",
      "is_free": false,
      "scope": "regional",
      "featured": false,
      "description": "Arizona Region SCCA championship round."
    },
    {
      "name": "Colorado SCCA Autocross Season Opener",
      "event_type": "autocross",
      "city": "Englewood",
      "state": "CO",
      "start_date": "2026-04-05",
      "end_date": "2026-04-05",
      "venue_name": "Arapahoe County Fairgrounds",
      "address": "25690 E Quincy Ave",
      "zip": "80016",
      "latitude": 39.6222,
      "longitude": -104.7458,
      "source_url": "https://www.cscca.org",
      "cost_text": "$50-75",
      "is_free": false,
      "scope": "regional",
      "featured": false,
      "description": "Colorado SCCA season opener."
    }
  ]
}









