{
  "batch": "Car Shows 2026 Expansion",
  "events": [
    {
      "name": "Amelia Island Concours d'Elegance 2026",
      "event_type": "car-show",
      "city": "Amelia Island",
      "state": "FL",
      "venue_name": "The Golf Club of Amelia Island",
      "address": "4700 Amelia Island Pkwy",
      "zip": "32034",
      "latitude": 30.5766,
      "longitude": -81.4423,
      "start_date": "2026-03-05",
      "end_date": "2026-03-08",
      "source_url": "https://www.ameliaconcours.com/",
      "cost_text": "$150-400",
      "is_free": false,
      "scope": "national",
      "featured": true,
      "description": "Premier East Coast concours celebrating automotive excellence. Includes auctions and tours."
    },
    {
      "name": "Pebble Beach Concours d'Elegance 2026",
      "event_type": "car-show",
      "city": "Pebble Beach",
      "state": "CA",
      "venue_name": "Pebble Beach Golf Links",
      "address": "1700 17 Mile Dr",
      "zip": "93953",
      "latitude": 36.5725,
      "longitude": -121.9486,
      "start_date": "2026-08-16",
      "end_date": "2026-08-16",
      "source_url": "https://www.pebblebeach.com/events/concours-delegance/",
      "cost_text": "$500-1500",
      "is_free": false,
      "scope": "national",
      "featured": true,
      "description": "World's premier celebration of the automobile. Culmination of Monterey Car Week."
    },
    {
      "name": "Hilton Head Island Concours d'Elegance 2026",
      "event_type": "car-show",
      "city": "Hilton Head Island",
      "state": "SC",
      "venue_name": "Various Locations",
      "address": "Hilton Head Island",
      "zip": "29928",
      "latitude": 32.2163,
      "longitude": -80.7526,
      "start_date": "2026-10-29",
      "end_date": "2026-11-01",
      "source_url": "https://www.hiltonheadisland.com/concours-delegance/",
      "cost_text": "$100-300",
      "is_free": false,
      "scope": "national",
      "featured": true,
      "description": "Hilton Head Island Concours d'Elegance & Motoring Festival."
    },
    {
      "name": "Goodguys Del Mar Nationals 2026",
      "event_type": "car-show",
      "city": "Del Mar",
      "state": "CA",
      "venue_name": "Del Mar Fairgrounds",
      "address": "2260 Jimmy Durante Blvd",
      "zip": "92014",
      "latitude": 32.9595,
      "longitude": -117.2653,
      "start_date": "2026-04-10",
      "end_date": "2026-04-12",
      "source_url": "https://www.good-guys.com/dmn-participator",
      "cost_text": "$25-40",
      "is_free": false,
      "scope": "national",
      "featured": true,
      "description": "25th Meguiar's Del Mar Nationals. Rods, customs, classics, muscle cars through 1999."
    },
    {
      "name": "Goodguys Summit Racing Nationals Columbus 2026",
      "event_type": "car-show",
      "city": "Columbus",
      "state": "OH",
      "venue_name": "Ohio Expo Center",
      "address": "717 E 17th Ave",
      "zip": "43211",
      "latitude": 39.9950,
      "longitude": -82.9875,
      "start_date": "2026-07-10",
      "end_date": "2026-07-12",
      "source_url": "https://www.good-guys.com/ggn",
      "cost_text": "$25-40",
      "is_free": false,
      "scope": "national",
      "featured": true,
      "description": "28th Summit Racing Nationals. One of Goodguys' largest events."
    },
    {
      "name": "Carlisle Ford Nationals 2026",
      "event_type": "car-show",
      "city": "Carlisle",
      "state": "PA",
      "venue_name": "Carlisle Fairgrounds",
      "address": "1000 Bryn Mawr Rd",
      "zip": "17013",
      "latitude": 40.1984,
      "longitude": -77.1945,
      "start_date": "2026-06-05",
      "end_date": "2026-06-07",
      "source_url": "https://carlisleevents.azurewebsites.net/events",
      "cost_text": "$15-30",
      "is_free": false,
      "scope": "national",
      "featured": true,
      "description": "Carlisle Ford Nationals. Largest all-Ford show in the country.",
      "brand_affinity": "Ford"
    },
    {
      "name": "Carlisle GM Nationals 2026",
      "event_type": "car-show",
      "city": "Carlisle",
      "state": "PA",
      "venue_name": "Carlisle Fairgrounds",
      "address": "1000 Bryn Mawr Rd",
      "zip": "17013",
      "latitude": 40.1984,
      "longitude": -77.1945,
      "start_date": "2026-06-19",
      "end_date": "2026-06-20",
      "source_url": "https://carlisleevents.azurewebsites.net/events",
      "cost_text": "$15-30",
      "is_free": false,
      "scope": "national",
      "featured": true,
      "description": "Carlisle GM Nationals. Celebration of General Motors vehicles."
    },
    {
      "name": "Carlisle Chrysler Nationals 2026",
      "event_type": "car-show",
      "city": "Carlisle",
      "state": "PA",
      "venue_name": "Carlisle Fairgrounds",
      "address": "1000 Bryn Mawr Rd",
      "zip": "17013",
      "latitude": 40.1984,
      "longitude": -77.1945,
      "start_date": "2026-07-10",
      "end_date": "2026-07-12",
      "source_url": "https://carlisleevents.azurewebsites.net/events",
      "cost_text": "$15-30",
      "is_free": false,
      "scope": "national",
      "featured": true,
      "description": "Carlisle Chrysler Nationals. Largest Mopar show in the world."
    },
    {
      "name": "Corvettes at Carlisle 2026",
      "event_type": "car-show",
      "city": "Carlisle",
      "state": "PA",
      "venue_name": "Carlisle Fairgrounds",
      "address": "1000 Bryn Mawr Rd",
      "zip": "17013",
      "latitude": 40.1984,
      "longitude": -77.1945,
      "start_date": "2026-08-27",
      "end_date": "2026-08-29",
      "source_url": "https://carlisleevents.azurewebsites.net/events",
      "cost_text": "$15-30",
      "is_free": false,
      "scope": "national",
      "featured": true,
      "description": "Corvettes at Carlisle. World's largest Corvette event.",
      "brand_affinity": "Chevrolet"
    },
    {
      "name": "RADwood Heritage Invitational 2026",
      "event_type": "car-show",
      "city": "Charlotte",
      "state": "NC",
      "venue_name": "Ten Tenths Motor Club",
      "address": "Charlotte Motor Speedway",
      "zip": "28027",
      "latitude": 35.3528,
      "longitude": -80.6831,
      "start_date": "2026-04-09",
      "end_date": "2026-04-11",
      "source_url": "https://www.charlottemotorspeedway.com/",
      "cost_text": "$30-75",
      "is_free": false,
      "scope": "national",
      "featured": true,
      "description": "RADwood at Heritage Invitational. Celebration of 80s and 90s car culture."
    },
    {
      "name": "Wekfest San Jose 2026",
      "event_type": "car-show",
      "city": "San Jose",
      "state": "CA",
      "venue_name": "San Jose Convention Center",
      "address": "150 W San Carlos St",
      "zip": "95113",
      "latitude": 37.3297,
      "longitude": -121.8890,
      "start_date": "2026-06-28",
      "end_date": "2026-06-28",
      "source_url": "https://www.wekfest-usa.com/",
      "cost_text": "$20-40",
      "is_free": false,
      "scope": "national",
      "featured": true,
      "description": "Wekfest San Jose. Premier import car show celebrating JDM and Euro culture."
    },
    {
      "name": "Wekfest Seattle 2026",
      "event_type": "car-show",
      "city": "Seattle",
      "state": "WA",
      "venue_name": "CenturyLink Field Event Center",
      "address": "800 Occidental Ave S",
      "zip": "98134",
      "latitude": 47.5951,
      "longitude": -122.3316,
      "start_date": "2026-07-26",
      "end_date": "2026-07-26",
      "source_url": "https://www.wekfest-usa.com/",
      "cost_text": "$20-40",
      "is_free": false,
      "scope": "national",
      "featured": false,
      "description": "Wekfest Seattle. Pacific Northwest's premier import car show."
    },
    {
      "name": "Wekfest Chicago 2026",
      "event_type": "car-show",
      "city": "Chicago",
      "state": "IL",
      "venue_name": "Chicago Convention Center",
      "address": "2301 S King Dr",
      "zip": "60616",
      "latitude": 41.8508,
      "longitude": -87.6169,
      "start_date": "2026-09-06",
      "end_date": "2026-09-06",
      "source_url": "https://www.wekfest-usa.com/",
      "cost_text": "$20-40",
      "is_free": false,
      "scope": "national",
      "featured": false,
      "description": "Wekfest Chicago. Midwest's premier import car show."
    },
    {
      "name": "Wekfest Los Angeles 2026",
      "event_type": "car-show",
      "city": "Los Angeles",
      "state": "CA",
      "venue_name": "Los Angeles Convention Center",
      "address": "1201 S Figueroa St",
      "zip": "90015",
      "latitude": 34.0407,
      "longitude": -118.2698,
      "start_date": "2026-09-20",
      "end_date": "2026-09-20",
      "source_url": "https://www.wekfest-usa.com/",
      "cost_text": "$20-40",
      "is_free": false,
      "scope": "national",
      "featured": true,
      "description": "Wekfest Los Angeles. SoCal's premier import and tuner car show."
    },
    {
      "name": "Slammedenuff Nashville Stoopicold 2026",
      "event_type": "car-show",
      "city": "Lebanon",
      "state": "TN",
      "venue_name": "Nashville SuperSpeedway",
      "address": "4847-F McCrary Road",
      "zip": "37090",
      "latitude": 36.1667,
      "longitude": -86.3875,
      "start_date": "2026-01-10",
      "end_date": "2026-01-10",
      "source_url": "https://allevents.in/",
      "cost_text": "$20-40",
      "is_free": false,
      "scope": "regional",
      "featured": false,
      "description": "Slammedenuff Stoopicold Nashville. Stance and drift car show and experience."
    },
    {
      "name": "SEMA Show 2026",
      "event_type": "industry",
      "city": "Las Vegas",
      "state": "NV",
      "venue_name": "Las Vegas Convention Center",
      "address": "3150 Paradise Rd",
      "zip": "89109",
      "latitude": 36.1318,
      "longitude": -115.1517,
      "start_date": "2026-11-03",
      "end_date": "2026-11-06",
      "source_url": "https://www.semashow.com/",
      "cost_text": "Trade only",
      "is_free": false,
      "scope": "national",
      "featured": true,
      "description": "World's largest automotive aftermarket trade show. 160,000+ attendees."
    }
  ]
}

