{
  "description": "Major car shows for 2026 - Carlisle Events, Goodguys, major concours",
  "source": "Official event websites, research December 2024",
  "updated": "2024-12-17",
  "events": [
    {
      "name": "Auto Mania 2026",
      "event_type": "car-show",
      "city": "Allentown",
      "state": "PA",
      "start_date": "2026-01-16",
      "end_date": "2026-01-18",
      "venue_name": "Agri-Plex Expo Center",
      "address": "17th & Chew Streets",
      "zip": "18104",
      "latitude": 40.6084,
      "longitude": -75.4902,
      "source_url": "https://carlisleevents.com",
      "cost_text": "$12-15",
      "is_free": false,
      "scope": "regional",
      "featured": false,
      "description": "Pennsylvania's largest indoor heated automotive flea market.",
      "organizer": "Carlisle Events"
    },
    {
      "name": "Spring Carlisle 2026",
      "event_type": "car-show",
      "city": "Carlisle",
      "state": "PA",
      "start_date": "2026-04-22",
      "end_date": "2026-04-26",
      "venue_name": "Carlisle Fairgrounds",
      "address": "1000 Bryn Mawr Rd",
      "zip": "17013",
      "latitude": 40.2010,
      "longitude": -77.1886,
      "source_url": "https://carlisleevents.com",
      "cost_text": "$15-20",
      "is_free": false,
      "scope": "national",
      "featured": true,
      "description": "One of the largest automotive flea markets in the country with auction.",
      "organizer": "Carlisle Events"
    },
    {
      "name": "Carlisle Import & Performance Nationals 2026",
      "event_type": "car-show",
      "city": "Carlisle",
      "state": "PA",
      "start_date": "2026-05-15",
      "end_date": "2026-05-16",
      "venue_name": "Carlisle Fairgrounds",
      "address": "1000 Bryn Mawr Rd",
      "zip": "17013",
      "latitude": 40.2010,
      "longitude": -77.1886,
      "source_url": "https://carlisleevents.com",
      "cost_text": "$15-20",
      "is_free": false,
      "scope": "national",
      "featured": false,
      "description": "1,700+ imported and performance vehicles with autocross and drifting.",
      "organizer": "Carlisle Events"
    },
    {
      "name": "Carlisle Ford Nationals 2026",
      "event_type": "car-show",
      "city": "Carlisle",
      "state": "PA",
      "start_date": "2026-06-05",
      "end_date": "2026-06-07",
      "venue_name": "Carlisle Fairgrounds",
      "address": "1000 Bryn Mawr Rd",
      "zip": "17013",
      "latitude": 40.2010,
      "longitude": -77.1886,
      "source_url": "https://carlisleevents.com",
      "cost_text": "$15-20",
      "is_free": false,
      "scope": "national",
      "featured": true,
      "description": "Largest all-Ford show in the world. Ford, Lincoln, Mercury vehicles.",
      "organizer": "Carlisle Events",
      "brand_affinity": "Ford"
    },
    {
      "name": "Carlisle GM Nationals 2026",
      "event_type": "car-show",
      "city": "Carlisle",
      "state": "PA",
      "start_date": "2026-06-19",
      "end_date": "2026-06-20",
      "venue_name": "Carlisle Fairgrounds",
      "address": "1000 Bryn Mawr Rd",
      "zip": "17013",
      "latitude": 40.2010,
      "longitude": -77.1886,
      "source_url": "https://carlisleevents.com",
      "cost_text": "$15-20",
      "is_free": false,
      "scope": "national",
      "featured": false,
      "description": "Celebrating 100 years of Pontiac. Chevrolet, Buick, Oldsmobile, GMC.",
      "organizer": "Carlisle Events",
      "brand_affinity": "Chevrolet"
    },
    {
      "name": "Carlisle Chrysler Nationals 2026",
      "event_type": "car-show",
      "city": "Carlisle",
      "state": "PA",
      "start_date": "2026-07-10",
      "end_date": "2026-07-12",
      "venue_name": "Carlisle Fairgrounds",
      "address": "1000 Bryn Mawr Rd",
      "zip": "17013",
      "latitude": 40.2010,
      "longitude": -77.1886,
      "source_url": "https://carlisleevents.com",
      "cost_text": "$15-20",
      "is_free": false,
      "scope": "national",
      "featured": true,
      "description": "Largest Mopar event in the world. Nearly 3,000 vehicles.",
      "organizer": "Carlisle Events",
      "brand_affinity": "Dodge"
    },
    {
      "name": "Carlisle Truck Nationals 2026",
      "event_type": "car-show",
      "city": "Carlisle",
      "state": "PA",
      "start_date": "2026-08-07",
      "end_date": "2026-08-09",
      "venue_name": "Carlisle Fairgrounds",
      "address": "1000 Bryn Mawr Rd",
      "zip": "17013",
      "latitude": 40.2010,
      "longitude": -77.1886,
      "source_url": "https://carlisleevents.com",
      "cost_text": "$15-20",
      "is_free": false,
      "scope": "national",
      "featured": false,
      "description": "Trucks of all shapes and sizes with Monster Truck shows.",
      "organizer": "Carlisle Events"
    },
    {
      "name": "Corvettes at Carlisle 2026",
      "event_type": "car-show",
      "city": "Carlisle",
      "state": "PA",
      "start_date": "2026-08-27",
      "end_date": "2026-08-29",
      "venue_name": "Carlisle Fairgrounds",
      "address": "1000 Bryn Mawr Rd",
      "zip": "17013",
      "latitude": 40.2010,
      "longitude": -77.1886,
      "source_url": "https://carlisleevents.com",
      "cost_text": "$15-20",
      "is_free": false,
      "scope": "national",
      "featured": true,
      "description": "Largest Corvette car show in the world.",
      "organizer": "Carlisle Events",
      "brand_affinity": "Chevrolet"
    },
    {
      "name": "Fall Carlisle 2026",
      "event_type": "car-show",
      "city": "Carlisle",
      "state": "PA",
      "start_date": "2026-09-30",
      "end_date": "2026-10-04",
      "venue_name": "Carlisle Fairgrounds",
      "address": "1000 Bryn Mawr Rd",
      "zip": "17013",
      "latitude": 40.2010,
      "longitude": -77.1886,
      "source_url": "https://carlisleevents.com",
      "cost_text": "$15-20",
      "is_free": false,
      "scope": "national",
      "featured": true,
      "description": "Fall edition of the famous collector car flea market and auction.",
      "organizer": "Carlisle Events"
    },
    {
      "name": "Goodguys Spring Lone Star Nationals 2026",
      "event_type": "car-show",
      "city": "Fort Worth",
      "state": "TX",
      "start_date": "2026-03-06",
      "end_date": "2026-03-07",
      "venue_name": "Texas Motor Speedway",
      "address": "3545 Lone Star Cir",
      "zip": "76177",
      "latitude": 33.0373,
      "longitude": -97.2822,
      "source_url": "https://www.good-guys.com",
      "cost_text": "$25-30",
      "is_free": false,
      "scope": "regional",
      "featured": false,
      "description": "LMC Truck Spring Lone Star Nationals at Texas Motor Speedway.",
      "organizer": "Goodguys"
    },
    {
      "name": "Goodguys Spring Nationals Scottsdale 2026",
      "event_type": "car-show",
      "city": "Scottsdale",
      "state": "AZ",
      "start_date": "2026-03-13",
      "end_date": "2026-03-14",
      "venue_name": "WestWorld of Scottsdale",
      "address": "16601 N Pima Rd",
      "zip": "85260",
      "latitude": 33.6251,
      "longitude": -111.8989,
      "source_url": "https://www.good-guys.com",
      "cost_text": "$25-30",
      "is_free": false,
      "scope": "national",
      "featured": true,
      "description": "FiTech Fuel Injection Spring Nationals in Scottsdale.",
      "organizer": "Goodguys"
    },
    {
      "name": "Goodguys All American Get-Together 2026",
      "event_type": "car-show",
      "city": "Pleasanton",
      "state": "CA",
      "start_date": "2026-03-28",
      "end_date": "2026-03-29",
      "venue_name": "Alameda County Fairgrounds",
      "address": "4501 Pleasanton Ave",
      "zip": "94566",
      "latitude": 37.6624,
      "longitude": -121.8747,
      "source_url": "https://www.good-guys.com",
      "cost_text": "$25-30",
      "is_free": false,
      "scope": "national",
      "featured": true,
      "description": "42nd All American Get-Together. Bay Area tradition.",
      "organizer": "Goodguys"
    },
    {
      "name": "Goodguys Del Mar Nationals 2026",
      "event_type": "car-show",
      "city": "Del Mar",
      "state": "CA",
      "start_date": "2026-04-10",
      "end_date": "2026-04-12",
      "venue_name": "Del Mar Fairgrounds",
      "address": "2260 Jimmy Durante Blvd",
      "zip": "92014",
      "latitude": 32.9595,
      "longitude": -117.2653,
      "source_url": "https://www.good-guys.com",
      "cost_text": "$25-30",
      "is_free": false,
      "scope": "national",
      "featured": true,
      "description": "25th Meguiar's Del Mar Nationals. SoCal premier hot rod show.",
      "organizer": "Goodguys"
    },
    {
      "name": "Goodguys North Carolina Nationals 2026",
      "event_type": "car-show",
      "city": "Raleigh",
      "state": "NC",
      "start_date": "2026-04-17",
      "end_date": "2026-04-18",
      "venue_name": "North Carolina State Fairgrounds",
      "address": "4285 Trinity Rd",
      "zip": "27607",
      "latitude": 35.7796,
      "longitude": -78.7181,
      "source_url": "https://www.good-guys.com",
      "cost_text": "$25-30",
      "is_free": false,
      "scope": "regional",
      "featured": false,
      "description": "11th Griot's Garage North Carolina Nationals.",
      "organizer": "Goodguys"
    },
    {
      "name": "Goodguys Legends of Hot Rodding Nashville 2026",
      "event_type": "car-show",
      "city": "Nashville",
      "state": "TN",
      "start_date": "2026-05-15",
      "end_date": "2026-05-16",
      "venue_name": "The Fairgrounds Nashville",
      "address": "625 Smith Ave",
      "zip": "37203",
      "latitude": 36.1404,
      "longitude": -86.7631,
      "source_url": "https://www.good-guys.com",
      "cost_text": "$25-30",
      "is_free": false,
      "scope": "national",
      "featured": true,
      "description": "First-ever BASF Legends of Hot Rodding in Nashville.",
      "organizer": "Goodguys"
    },
    {
      "name": "Goodguys Southeastern Nationals 2026",
      "event_type": "car-show",
      "city": "Perry",
      "state": "GA",
      "start_date": "2026-06-12",
      "end_date": "2026-06-13",
      "venue_name": "Georgia National Fairgrounds",
      "address": "401 Larry Walker Pkwy",
      "zip": "31069",
      "latitude": 32.4580,
      "longitude": -83.7321,
      "source_url": "https://www.good-guys.com",
      "cost_text": "$25-30",
      "is_free": false,
      "scope": "regional",
      "featured": false,
      "description": "26th Southeastern Nationals in Perry, Georgia.",
      "organizer": "Goodguys"
    },
    {
      "name": "Goodguys Heartland Nationals 2026",
      "event_type": "car-show",
      "city": "Des Moines",
      "state": "IA",
      "start_date": "2026-07-03",
      "end_date": "2026-07-05",
      "venue_name": "Iowa State Fairgrounds",
      "address": "3000 E Grand Ave",
      "zip": "50317",
      "latitude": 41.5923,
      "longitude": -93.5644,
      "source_url": "https://www.good-guys.com",
      "cost_text": "$25-30",
      "is_free": false,
      "scope": "national",
      "featured": true,
      "description": "35th Speedway Motors Heartland Nationals.",
      "organizer": "Goodguys"
    },
    {
      "name": "Goodguys Summit Racing Nationals Columbus 2026",
      "event_type": "car-show",
      "city": "Columbus",
      "state": "OH",
      "start_date": "2026-07-10",
      "end_date": "2026-07-12",
      "venue_name": "Ohio Expo Center",
      "address": "717 E 17th Ave",
      "zip": "43211",
      "latitude": 40.0012,
      "longitude": -82.9988,
      "source_url": "https://www.good-guys.com",
      "cost_text": "$25-30",
      "is_free": false,
      "scope": "national",
      "featured": true,
      "description": "28th Summit Racing Nationals. Midwest's largest rod show.",
      "organizer": "Goodguys"
    },
    {
      "name": "Goodguys Pacific Northwest Nationals 2026",
      "event_type": "car-show",
      "city": "Puyallup",
      "state": "WA",
      "start_date": "2026-07-24",
      "end_date": "2026-07-26",
      "venue_name": "Washington State Fair Events Center",
      "address": "110 9th Ave SW",
      "zip": "98371",
      "latitude": 47.1921,
      "longitude": -122.2929,
      "source_url": "https://www.good-guys.com",
      "cost_text": "$25-30",
      "is_free": false,
      "scope": "national",
      "featured": true,
      "description": "38th Griot's Garage Pacific Northwest Nationals.",
      "organizer": "Goodguys"
    },
    {
      "name": "Goodguys West Coast Nationals 2026",
      "event_type": "car-show",
      "city": "Pleasanton",
      "state": "CA",
      "start_date": "2026-08-21",
      "end_date": "2026-08-23",
      "venue_name": "Alameda County Fairgrounds",
      "address": "4501 Pleasanton Ave",
      "zip": "94566",
      "latitude": 37.6624,
      "longitude": -121.8747,
      "source_url": "https://www.good-guys.com",
      "cost_text": "$25-30",
      "is_free": false,
      "scope": "national",
      "featured": true,
      "description": "39th West Coast Nationals. Goodguys flagship event.",
      "organizer": "Goodguys"
    },
    {
      "name": "Goodguys Colorado Nationals 2026",
      "event_type": "car-show",
      "city": "Loveland",
      "state": "CO",
      "start_date": "2026-09-11",
      "end_date": "2026-09-13",
      "venue_name": "The Ranch Events Complex",
      "address": "5280 Arena Cir",
      "zip": "80538",
      "latitude": 40.4233,
      "longitude": -105.0428,
      "source_url": "https://www.good-guys.com",
      "cost_text": "$25-30",
      "is_free": false,
      "scope": "national",
      "featured": true,
      "description": "28th Griot's Garage Colorado Nationals.",
      "organizer": "Goodguys"
    },
    {
      "name": "Goodguys Fall Lone Star Nationals 2026",
      "event_type": "car-show",
      "city": "Fort Worth",
      "state": "TX",
      "start_date": "2026-09-25",
      "end_date": "2026-09-26",
      "venue_name": "Texas Motor Speedway",
      "address": "3545 Lone Star Cir",
      "zip": "76177",
      "latitude": 33.0373,
      "longitude": -97.2822,
      "source_url": "https://www.good-guys.com",
      "cost_text": "$25-30",
      "is_free": false,
      "scope": "regional",
      "featured": false,
      "description": "33rd Summit Racing Lone Star Nationals.",
      "organizer": "Goodguys"
    },
    {
      "name": "Goodguys Autumn Get-Together 2026",
      "event_type": "car-show",
      "city": "Pleasanton",
      "state": "CA",
      "start_date": "2026-11-14",
      "end_date": "2026-11-15",
      "venue_name": "Alameda County Fairgrounds",
      "address": "4501 Pleasanton Ave",
      "zip": "94566",
      "latitude": 37.6624,
      "longitude": -121.8747,
      "source_url": "https://www.good-guys.com",
      "cost_text": "$25-30",
      "is_free": false,
      "scope": "national",
      "featured": false,
      "description": "36th Fuel Curve Autumn Get-Together.",
      "organizer": "Goodguys"
    },
    {
      "name": "Goodguys Southwest Nationals 2026",
      "event_type": "car-show",
      "city": "Scottsdale",
      "state": "AZ",
      "start_date": "2026-11-20",
      "end_date": "2026-11-22",
      "venue_name": "WestWorld of Scottsdale",
      "address": "16601 N Pima Rd",
      "zip": "85260",
      "latitude": 33.6251,
      "longitude": -111.8989,
      "source_url": "https://www.good-guys.com",
      "cost_text": "$25-30",
      "is_free": false,
      "scope": "national",
      "featured": true,
      "description": "29th Speedway Motors Southwest Nationals. Season finale.",
      "organizer": "Goodguys"
    },
    {
      "name": "Pebble Beach Concours d'Elegance 2026",
      "event_type": "car-show",
      "city": "Pebble Beach",
      "state": "CA",
      "start_date": "2026-08-16",
      "end_date": "2026-08-16",
      "venue_name": "Pebble Beach Golf Links",
      "address": "1700 17 Mile Dr",
      "zip": "93953",
      "latitude": 36.5725,
      "longitude": -121.9486,
      "source_url": "https://pebblebeachconcours.net",
      "cost_text": "$500-1500",
      "is_free": false,
      "scope": "national",
      "featured": true,
      "description": "World's premier celebration of the automobile. Monterey Car Week finale.",
      "organizer": "Pebble Beach Company"
    },
    {
      "name": "The Quail, A Motorsports Gathering 2026",
      "event_type": "car-show",
      "city": "Carmel",
      "state": "CA",
      "start_date": "2026-08-14",
      "end_date": "2026-08-14",
      "venue_name": "Quail Lodge & Golf Club",
      "address": "8205 Valley Greens Dr",
      "zip": "93923",
      "latitude": 36.4978,
      "longitude": -121.8428,
      "source_url": "https://thequail.com",
      "cost_text": "$750-1000",
      "is_free": false,
      "scope": "national",
      "featured": true,
      "description": "Exclusive Monterey Car Week event featuring rare automobiles.",
      "organizer": "The Peninsula Signature Events"
    },
    {
      "name": "Amelia Island Concours d'Elegance 2026",
      "event_type": "car-show",
      "city": "Amelia Island",
      "state": "FL",
      "start_date": "2026-03-06",
      "end_date": "2026-03-08",
      "venue_name": "The Ritz-Carlton, Amelia Island",
      "address": "4750 Amelia Island Pkwy",
      "zip": "32034",
      "latitude": 30.5766,
      "longitude": -81.4423,
      "source_url": "https://www.ameliaconcours.org",
      "cost_text": "$150-350",
      "is_free": false,
      "scope": "national",
      "featured": true,
      "description": "Premier East Coast concours. Includes RM Sotheby's auction.",
      "organizer": "Amelia Concours"
    },
    {
      "name": "Hilton Head Island Concours d'Elegance 2026",
      "event_type": "car-show",
      "city": "Hilton Head Island",
      "state": "SC",
      "start_date": "2026-11-06",
      "end_date": "2026-11-08",
      "venue_name": "Port Royal Golf Club",
      "address": "10A Grasslawn Ave",
      "zip": "29928",
      "latitude": 32.1961,
      "longitude": -80.7526,
      "source_url": "https://hhiconcours.com",
      "cost_text": "$100-200",
      "is_free": false,
      "scope": "national",
      "featured": true,
      "description": "Southeast's premier concours on Hilton Head Island.",
      "organizer": "Hilton Head Island Motoring Festival"
    },
    {
      "name": "Audrain Newport Concours & Motor Week 2026",
      "event_type": "car-show",
      "city": "Newport",
      "state": "RI",
      "start_date": "2026-10-01",
      "end_date": "2026-10-04",
      "venue_name": "Audrain Automobile Museum",
      "address": "222 Bellevue Ave",
      "zip": "02840",
      "latitude": 41.4747,
      "longitude": -71.3058,
      "source_url": "https://audrainconcours.com",
      "cost_text": "$150-300",
      "is_free": false,
      "scope": "national",
      "featured": true,
      "description": "Northeast concours featuring rare automobiles at historic Newport estates.",
      "organizer": "Audrain Museum"
    },
    {
      "name": "Greenwich Concours d'Elegance 2026",
      "event_type": "car-show",
      "city": "Greenwich",
      "state": "CT",
      "start_date": "2026-06-06",
      "end_date": "2026-06-07",
      "venue_name": "Roger Sherman Baldwin Park",
      "address": "100 Arch St",
      "zip": "06830",
      "latitude": 41.0261,
      "longitude": -73.6245,
      "source_url": "https://greenwichconcours.com",
      "cost_text": "$50-150",
      "is_free": false,
      "scope": "national",
      "featured": true,
      "description": "Prestigious concours in historic Greenwich.",
      "organizer": "Greenwich Concours"
    },
    {
      "name": "Keels & Wheels Concours d'Elegance 2026",
      "event_type": "car-show",
      "city": "Seabrook",
      "state": "TX",
      "start_date": "2026-05-02",
      "end_date": "2026-05-03",
      "venue_name": "Lakewood Yacht Club",
      "address": "2322 Lakeside Landing",
      "zip": "77586",
      "latitude": 29.5633,
      "longitude": -95.0260,
      "source_url": "https://keels-wheels.com",
      "cost_text": "$50-100",
      "is_free": false,
      "scope": "national",
      "featured": false,
      "description": "Unique concours featuring classic cars and boats.",
      "organizer": "Keels & Wheels"
    }
  ]
}
