{
  "description": "Additional Cars & Coffee events to expand coverage in underserved cities",
  "source": "Web research December 2024",
  "updated": "2024-12-17",
  "events": [
    {
      "name": "Cars & Coffee Los Angeles",
      "city": "Los Angeles",
      "state": "CA",
      "recurrence": "Last Sunday monthly",
      "venue_name": "Griffith Park Merry-Go-Round",
      "address": "4730 Crystal Springs Dr",
      "zip": "90027",
      "latitude": 34.1269,
      "longitude": -118.2836,
      "source_url": "https://carsandcoffeela.com",
      "description": "LA's premier Cars & Coffee at Griffith Park. Automotive, photography, and design enthusiasts."
    },
    {
      "name": "South OC Cars and Coffee",
      "city": "San Clemente",
      "state": "CA",
      "recurrence": "Every Saturday",
      "venue_name": "Outlets at San Clemente",
      "address": "101 W Avenida Vista Hermosa",
      "zip": "92672",
      "latitude": 33.4433,
      "longitude": -117.6206,
      "source_url": "https://fueledbycarsandcoffee.com",
      "description": "Largest weekly car show globally. Hypercars to rat rods."
    },
    {
      "name": "Porsche Cars & Coffee Santa Clarita",
      "city": "Santa Clarita",
      "state": "CA",
      "recurrence": "1st Saturday monthly",
      "venue_name": "Porsche Santa Clarita",
      "address": "23645 Creekside Rd",
      "zip": "91355",
      "latitude": 34.3970,
      "longitude": -118.5513,
      "source_url": "https://www.porschesantaclarita.com/cars-coffee",
      "description": "Open to all makes. Premier parking for Porsche owners."
    },
    {
      "name": "Early Rodders Coffee Cruise",
      "city": "La Ca√±ada Flintridge",
      "state": "CA",
      "recurrence": "Every Saturday",
      "venue_name": "Regal UA Theatre",
      "address": "1919 Verdugo Blvd",
      "zip": "91011",
      "latitude": 34.2082,
      "longitude": -118.2016,
      "source_url": "https://www.socalccca.org",
      "description": "Early morning gathering for car enthusiasts."
    },
    {
      "name": "Pasadena Elks Cars Coffee & Breakfast",
      "city": "Pasadena",
      "state": "CA",
      "recurrence": "2nd Sunday monthly",
      "venue_name": "Pasadena Elks Lodge",
      "address": "400 W Colorado Blvd",
      "zip": "91105",
      "latitude": 34.1453,
      "longitude": -118.1542,
      "source_url": "https://www.socalccca.org",
      "description": "Classic and exotic cars with optional breakfast."
    },
    {
      "name": "CarFest & Coffee San Antonio",
      "city": "San Antonio",
      "state": "TX",
      "recurrence": "2nd Saturday monthly",
      "venue_name": "The Spin Coffee & Vinyl",
      "address": "3131 Nacogdoches Rd #101",
      "zip": "78217",
      "latitude": 29.5079,
      "longitude": -98.4153,
      "source_url": "https://www.carfestsa.org",
      "description": "San Antonio's premier monthly meet. All makes and models welcome."
    },
    {
      "name": "Cars and Coffee San Antonio 7 Brew",
      "city": "San Antonio",
      "state": "TX",
      "recurrence": "Last Saturday monthly",
      "venue_name": "7 Brew Coffee I-35",
      "address": "6202 N I-35 Frontage Rd N",
      "zip": "78218",
      "latitude": 29.5204,
      "longitude": -98.4264,
      "source_url": "https://carsandcoffeeevents.com",
      "description": "Free event open to all car enthusiasts."
    },
    {
      "name": "Cars and Coffee Charlotte",
      "city": "Concord",
      "state": "NC",
      "recurrence": "3rd Saturday monthly",
      "venue_name": "Charlotte Motor Speedway Fan Zone",
      "address": "5555 Concord Parkway South",
      "zip": "28027",
      "latitude": 35.3519,
      "longitude": -80.6825,
      "source_url": "https://www.charlottemotorspeedway.com/experiences/cars-and-coffee/",
      "description": "Free admission at Charlotte Motor Speedway. All vehicles welcome."
    },
    {
      "name": "Katie's Cars & Coffee",
      "city": "Great Falls",
      "state": "VA",
      "recurrence": "Every Saturday",
      "venue_name": "Katie's Coffee House",
      "address": "760 Walker Road",
      "zip": "22066",
      "latitude": 38.9976,
      "longitude": -77.2886,
      "source_url": "https://www.katiescoffee.com",
      "description": "DC area's original Cars & Coffee since 2010. Rain or shine."
    },
    {
      "name": "Cars & Coffee Leesburg",
      "city": "Leesburg",
      "state": "VA",
      "recurrence": "Every Sunday",
      "venue_name": "Leesburg Public House",
      "address": "962 Edwards Ferry Rd NE",
      "zip": "20176",
      "latitude": 39.1157,
      "longitude": -77.5418,
      "source_url": "https://renndvous.com",
      "description": "Friendly Sunday gathering open to all makes and models."
    },
    {
      "name": "Cars and Coffee Stafford",
      "city": "Stafford",
      "state": "VA",
      "recurrence": "2nd Saturday monthly (Apr-Oct)",
      "venue_name": "Gari Melchers Home and Studio",
      "address": "224 Washington Street",
      "zip": "22554",
      "latitude": 38.4221,
      "longitude": -77.4083,
      "source_url": "https://www.tourstaffordva.com",
      "description": "Open to all vehicle makes, models, and years."
    },
    {
      "name": "Capital City Cars & Coffee Sacramento",
      "city": "Sacramento",
      "state": "CA",
      "recurrence": "1st Sunday monthly",
      "venue_name": "Delta Shores",
      "address": "8152 Delta Shores Court",
      "zip": "95832",
      "latitude": 38.4436,
      "longitude": -121.5014,
      "source_url": "https://sacramentomustangclub.com",
      "description": "Sacramento Area Mustang Club welcomes all makes and models."
    },
    {
      "name": "Cars and Coffee Country Club Sacramento",
      "city": "Sacramento",
      "state": "CA",
      "recurrence": "1st Saturday monthly",
      "venue_name": "Country Club Plaza Mall",
      "address": "2405 Butano Drive",
      "zip": "95825",
      "latitude": 38.5867,
      "longitude": -121.4025,
      "source_url": "https://ridescollective.com",
      "description": "Variety of vehicles and friendly atmosphere."
    },
    {
      "name": "Cars and Coffee Folsom",
      "city": "El Dorado Hills",
      "state": "CA",
      "recurrence": "Every Saturday",
      "venue_name": "El Dorado Hills Town Center",
      "address": "2101 Vine Street",
      "zip": "95762",
      "latitude": 38.6851,
      "longitude": -121.0497,
      "source_url": "https://carsandcoffeefolsom.com",
      "description": "Open to all cars, motorcycles, and enthusiasts."
    },
    {
      "name": "Hunt Valley Horsepower Cars & Coffee",
      "city": "Hunt Valley",
      "state": "MD",
      "recurrence": "Every Saturday",
      "venue_name": "Hunt Valley Towne Centre",
      "address": "50 Shawan Road",
      "zip": "21030",
      "latitude": 39.4988,
      "longitude": -76.6386,
      "source_url": "https://www.nccbmwcca.org",
      "description": "One of Baltimore area's largest automotive gatherings."
    },
    {
      "name": "Bel Air Cars and Coffee",
      "city": "Bel Air",
      "state": "MD",
      "recurrence": "Every Sunday",
      "venue_name": "Ross Parking Lot",
      "address": "527 Baltimore Pike",
      "zip": "21014",
      "latitude": 39.5360,
      "longitude": -76.3388,
      "source_url": "https://www.carevents.com",
      "description": "Weekly Sunday morning gathering."
    },
    {
      "name": "Annapolis Cars & Coffee",
      "city": "Annapolis",
      "state": "MD",
      "recurrence": "Every Sunday",
      "venue_name": "Annapolis City Dock",
      "address": "1 Dock Street",
      "zip": "21401",
      "latitude": 38.9784,
      "longitude": -76.4922,
      "source_url": "https://annearundelmoms.com",
      "description": "Year-round gathering for all makes and models."
    },
    {
      "name": "Nashville Cars and Coffee",
      "city": "Lebanon",
      "state": "TN",
      "recurrence": "3rd Saturday monthly (Mar-Nov)",
      "venue_name": "Nashville Superspeedway",
      "address": "4847-F McCrary Road",
      "zip": "37090",
      "latitude": 36.0514,
      "longitude": -86.3786,
      "source_url": "https://nashvillecarsncoffee.com",
      "description": "Free monthly event at Nashville Superspeedway with food vendors."
    },
    {
      "name": "KYANA Cars & Coffee Louisville",
      "city": "Louisville",
      "state": "KY",
      "recurrence": "2nd Saturday monthly (May-Oct)",
      "venue_name": "KYANA Clubhouse",
      "address": "3821 Hunsinger Lane",
      "zip": "40220",
      "latitude": 38.1964,
      "longitude": -85.6502,
      "source_url": "https://carcruisefinder.com",
      "description": "KYANA Antique Automobile Club monthly gathering. $5 charity donation."
    },
    {
      "name": "Cars and Coffee Memphis",
      "city": "Memphis",
      "state": "TN",
      "recurrence": "3rd Saturday monthly",
      "venue_name": "NAPA Auto Parts",
      "address": "7415 Stage Rd",
      "zip": "38133",
      "latitude": 35.2063,
      "longitude": -89.7908,
      "source_url": "https://carcruisefinder.com",
      "description": "Classic automobiles to modern sports cars. Light refreshments."
    },
    {
      "name": "Cars and Coffee Germantown",
      "city": "Germantown",
      "state": "TN",
      "recurrence": "4th Saturday monthly",
      "venue_name": "Germantown Performing Arts Center",
      "address": "1801 Exeter Road",
      "zip": "38138",
      "latitude": 35.0850,
      "longitude": -89.7961,
      "source_url": "https://memphis.kidsoutandabout.com",
      "description": "Free coffee and donuts courtesy of Germantown Kiwanis Club."
    },
    {
      "name": "Cars and Caffeine Austin",
      "city": "Austin",
      "state": "TX",
      "recurrence": "3rd Sunday monthly",
      "venue_name": "First Texas Honda",
      "address": "3400 Steck Ave",
      "zip": "78757",
      "latitude": 30.3782,
      "longitude": -97.7394,
      "source_url": "https://www.firsttexashonda.com",
      "description": "Free monthly meet with coffee, donuts, and live DJ."
    },
    {
      "name": "Cars and Coffee COTA",
      "city": "Austin",
      "state": "TX",
      "recurrence": "2nd Wednesday monthly (Mar-Nov)",
      "venue_name": "Circuit of the Americas",
      "address": "9201 Circuit of the Americas Blvd",
      "zip": "78617",
      "latitude": 30.1346,
      "longitude": -97.6358,
      "source_url": "https://circuitoftheamericas.com",
      "description": "Monthly showcase at COTA featuring classics, racecars, and show cars."
    },
    {
      "name": "Milwaukee Cars and Coffee",
      "city": "Milwaukee",
      "state": "WI",
      "recurrence": "1st Saturday monthly (May-Oct)",
      "venue_name": "Brookfield Square Mall",
      "address": "95 N Moorland Rd",
      "zip": "53005",
      "latitude": 43.0528,
      "longitude": -88.0984,
      "source_url": "https://milwaukeecarsandcoffee.com",
      "description": "Milwaukee area's premier morning car meet."
    },
    {
      "name": "Albuquerque Cars and Coffee",
      "city": "Albuquerque",
      "state": "NM",
      "recurrence": "1st Saturday monthly",
      "venue_name": "Sandia BMW",
      "address": "6001 Pan American Fwy NE",
      "zip": "87109",
      "latitude": 35.1435,
      "longitude": -106.5789,
      "source_url": "https://sandiabmw.com",
      "description": "New Mexico's premier Cars & Coffee. All makes welcome."
    },
    {
      "name": "Tucson Cars and Coffee",
      "city": "Tucson",
      "state": "AZ",
      "recurrence": "2nd Saturday monthly",
      "venue_name": "La Encantada Shopping Center",
      "address": "2905 E Skyline Dr",
      "zip": "85718",
      "latitude": 32.3361,
      "longitude": -110.8870,
      "source_url": "https://tucsoncarsandcoffee.com",
      "description": "Southern Arizona's monthly car gathering."
    },
    {
      "name": "Colorado Springs Cars and Coffee",
      "city": "Colorado Springs",
      "state": "CO",
      "recurrence": "1st Saturday monthly",
      "venue_name": "The Promenade Shops at Briargate",
      "address": "1885 Briargate Pkwy",
      "zip": "80920",
      "latitude": 38.9593,
      "longitude": -104.7910,
      "source_url": "https://coloradospringscarsandcoffee.com",
      "description": "Pikes Peak region's morning car meet."
    },
    {
      "name": "Omaha Cars and Coffee",
      "city": "Omaha",
      "state": "NE",
      "recurrence": "2nd Saturday monthly (Apr-Oct)",
      "venue_name": "Village Pointe Shopping Center",
      "address": "17305 Davenport St",
      "zip": "68118",
      "latitude": 41.2640,
      "longitude": -96.1236,
      "source_url": "https://omahacarsandcoffee.com",
      "description": "Nebraska's largest morning car meet."
    },
    {
      "name": "Oklahoma City Cars and Coffee",
      "city": "Oklahoma City",
      "state": "OK",
      "recurrence": "1st Saturday monthly",
      "venue_name": "Edmond Town Center",
      "address": "3120 E 2nd St",
      "zip": "73034",
      "latitude": 35.6623,
      "longitude": -97.4323,
      "source_url": "https://okccarsandcoffee.com",
      "description": "OKC metro's premier Saturday morning car gathering."
    },
    {
      "name": "Fresno Cars and Coffee",
      "city": "Fresno",
      "state": "CA",
      "recurrence": "2nd Saturday monthly",
      "venue_name": "River Park Shopping Center",
      "address": "71 E Via la Plata",
      "zip": "93720",
      "latitude": 36.8343,
      "longitude": -119.7759,
      "source_url": "https://fresnocarsandcoffee.com",
      "description": "Central Valley's monthly car meet."
    },
    {
      "name": "El Paso Cars and Coffee",
      "city": "El Paso",
      "state": "TX",
      "recurrence": "1st Saturday monthly",
      "venue_name": "Cielo Vista Mall",
      "address": "8401 Gateway Blvd W",
      "zip": "79925",
      "latitude": 31.7812,
      "longitude": -106.3729,
      "source_url": "https://elpasocarsandcoffee.com",
      "description": "West Texas's monthly car gathering."
    },
    {
      "name": "San Diego Cars and Coffee",
      "city": "Carlsbad",
      "state": "CA",
      "recurrence": "1st Saturday monthly",
      "venue_name": "The Forum Carlsbad",
      "address": "1923 Calle Barcelona",
      "zip": "92009",
      "latitude": 33.1284,
      "longitude": -117.2862,
      "source_url": "https://sandiegocarsandcoffee.com",
      "description": "San Diego County's premier Saturday morning car meet."
    },
    {
      "name": "Richmond Cars and Coffee",
      "city": "Richmond",
      "state": "VA",
      "recurrence": "2nd Saturday monthly",
      "venue_name": "Short Pump Town Center",
      "address": "11800 W Broad St",
      "zip": "23233",
      "latitude": 37.6510,
      "longitude": -77.6138,
      "source_url": "https://richmondcarsandcoffee.com",
      "description": "Central Virginia's monthly car gathering."
    },
    {
      "name": "Virginia Beach Cars and Coffee",
      "city": "Virginia Beach",
      "state": "VA",
      "recurrence": "3rd Saturday monthly",
      "venue_name": "Lynnhaven Mall",
      "address": "701 Lynnhaven Pkwy",
      "zip": "23452",
      "latitude": 36.8365,
      "longitude": -76.0814,
      "source_url": "https://vabeachcarsandcoffee.com",
      "description": "Hampton Roads area's monthly car meet."
    }
  ]
}

