{
  "batch": "Misc States - WV, DE, MS, HI",
  "venues": [
    {
      "name": "Charleston Cars and Coffee Moses BMW",
      "city": "St Albans",
      "state": "WV",
      "venue_name": "Moses BMW",
      "address": "Moses BMW",
      "zip": "25177",
      "lat": 38.3865,
      "lng": -81.8176,
      "recurrence": "2nd Saturday monthly",
      "source_url": "https://www.bmwcca.org/"
    },
    {
      "name": "Morgantown Cars and Coffee",
      "city": "Morgantown",
      "state": "WV",
      "venue_name": "Suncrest Towne Centre",
      "address": "Suncrest Towne Centre",
      "zip": "26505",
      "lat": 39.6295,
      "lng": -79.9559,
      "recurrence": "3rd Sunday monthly",
      "source_url": "https://www.visitmountaineercountry.com/"
    },
    {
      "name": "Barboursville Cars and Coffee",
      "city": "Barboursville",
      "state": "WV",
      "venue_name": "5170 US-60 E",
      "address": "5170 US-60 E",
      "zip": "25504",
      "lat": 38.4087,
      "lng": -82.2946,
      "recurrence": "3rd Saturday monthly",
      "source_url": "https://allevents.in/"
    },
    {
      "name": "Cars & Coffee Wilmington DE",
      "city": "Wilmington",
      "state": "DE",
      "venue_name": "Brandywine Commons II",
      "address": "1400 Rocky Run Pkwy",
      "zip": "19803",
      "lat": 39.8029,
      "lng": -75.5469,
      "recurrence": "1st Sunday monthly",
      "source_url": "https://happeningnext.com/"
    },
    {
      "name": "Cars & Coffee Dover DE",
      "city": "Dover",
      "state": "DE",
      "venue_name": "Greentree Plaza",
      "address": "Greentree Plaza, Route 8",
      "zip": "19901",
      "lat": 39.1582,
      "lng": -75.5244,
      "recurrence": "2nd Saturday monthly",
      "source_url": "https://occruzers.com/"
    },
    {
      "name": "Newark Cars & Coffee",
      "city": "Newark",
      "state": "DE",
      "venue_name": "Four Seasons Plaza Dunkin",
      "address": "Four Seasons Plaza",
      "zip": "19711",
      "lat": 39.6837,
      "lng": -75.7497,
      "recurrence": "2nd Saturday monthly",
      "source_url": "https://bccdelaware.org/"
    },
    {
      "name": "Cars and Coffee Jackson MS",
      "city": "Jackson",
      "state": "MS",
      "venue_name": "Porsche Jackson",
      "address": "5385 Interstate 55 North Frontage Rd",
      "zip": "39206",
      "lat": 32.3827,
      "lng": -90.1598,
      "recurrence": "3rd Saturday monthly",
      "source_url": "https://mag.pca.org/"
    },
    {
      "name": "Cars & Coffee South Mississippi Biloxi",
      "city": "Biloxi",
      "state": "MS",
      "venue_name": "Treasure Bay Casino",
      "address": "1980 Beach Blvd",
      "zip": "39531",
      "lat": 30.3944,
      "lng": -88.8481,
      "recurrence": "3rd Sunday monthly",
      "source_url": "https://carcruisefinder.com/"
    },
    {
      "name": "Cars & Coffee Hawaii Ewa Beach",
      "city": "Ewa Beach",
      "state": "HI",
      "venue_name": "Wai Kai",
      "address": "Wai Kai",
      "zip": "96706",
      "lat": 21.3215,
      "lng": -158.0072,
      "recurrence": "Last Saturday monthly",
      "source_url": "https://www.waikai.com/"
    },
    {
      "name": "Cars & Coffee Hawaii Kaneohe",
      "city": "Kaneohe",
      "state": "HI",
      "venue_name": "Ko'olau Center",
      "address": "Ko'olau Center",
      "zip": "96744",
      "lat": 21.4141,
      "lng": -157.8028,
      "recurrence": "Last Saturday monthly",
      "source_url": "https://koolaucenter.com/"
    }
  ]
}








