{
  "batch": "Missouri and Michigan Missing Cities",
  "venues": [
    {
      "name": "Caffeine and Cars Springfield Missouri",
      "city": "Springfield",
      "state": "MO",
      "venue_name": "Allison Sports Town",
      "address": "209 N Airport Blvd",
      "zip": "65802",
      "lat": 37.2278,
      "lng": -93.2913,
      "recurrence": "2nd Saturday monthly",
      "source_url": "https://www.americantowns.com/"
    },
    {
      "name": "Joplin Cars & Coffee",
      "city": "Joplin",
      "state": "MO",
      "venue_name": "Sig Auto Detailing",
      "address": "412 S Pennsylvania Ave",
      "zip": "64801",
      "lat": 37.0842,
      "lng": -94.5133,
      "recurrence": "2nd Saturday monthly",
      "source_url": "https://carsandcoffeeevents.com/"
    },
    {
      "name": "Greater Lansing Cars N Coffee",
      "city": "Lansing",
      "state": "MI",
      "venue_name": "High Caliber Karting and Entertainment",
      "address": "1982 W Grand River Ave #800",
      "zip": "48864",
      "lat": 42.7226,
      "lng": -84.4203,
      "recurrence": "3rd Saturday monthly",
      "source_url": "https://allevents.in/"
    },
    {
      "name": "Cars & Coffee Grand Rapids",
      "city": "Grand Rapids",
      "state": "MI",
      "venue_name": "Ferris Coffee Co",
      "address": "839 Seward Ave NW",
      "zip": "49504",
      "lat": 42.9771,
      "lng": -85.6810,
      "recurrence": "3rd Saturday monthly",
      "source_url": "https://www.carsandcoffeegrandrapids.com/"
    },
    {
      "name": "Cars & Coffee Flint Goyette Mechanical",
      "city": "Flint",
      "state": "MI",
      "venue_name": "Goyette Mechanical",
      "address": "5198 Territorial Rd",
      "zip": "48506",
      "lat": 43.0326,
      "lng": -83.6944,
      "recurrence": "3rd Saturday monthly",
      "source_url": "https://michiganbusinessnetwork.com/"
    }
  ]
}
