{
  "batch": "Carolinas Expansion - Charlotte, Raleigh, Greensboro",
  "venues": [
    {
      "name": "Cars and Coffee Charlotte",
      "city": "Charlotte",
      "state": "NC",
      "venue_name": "Whitehall Park",
      "address": "3545 Whitehall Park Dr",
      "zip": "28273",
      "lat": 35.1269,
      "lng": -80.9349,
      "recurrence": "1st Saturday monthly",
      "source_url": "https://www.rideology.io/"
    },
    {
      "name": "Cars and Coffee Greensboro",
      "city": "Greensboro",
      "state": "NC",
      "venue_name": "West Gate City Blvd",
      "address": "1720 West Gate City Blvd",
      "zip": "27403",
      "lat": 36.0437,
      "lng": -79.8428,
      "recurrence": "4th Saturday monthly",
      "source_url": "https://generalgreene.org/"
    },
    {
      "name": "Cars and Coffee Durham",
      "city": "Durham",
      "state": "NC",
      "venue_name": "Durham",
      "address": "Durham, NC",
      "zip": "27701",
      "lat": 35.9940,
      "lng": -78.8986,
      "recurrence": "2nd Saturday monthly",
      "source_url": "https://www.rideology.io/"
    },
    {
      "name": "Cars and Coffee Wilmington",
      "city": "Wilmington",
      "state": "NC",
      "venue_name": "Wilmington",
      "address": "Wilmington, NC",
      "zip": "28401",
      "lat": 34.2257,
      "lng": -77.9447,
      "recurrence": "1st Saturday monthly",
      "source_url": "https://www.rideology.io/"
    },
    {
      "name": "Cars and Coffee Charleston",
      "city": "Charleston",
      "state": "SC",
      "venue_name": "Charleston",
      "address": "Charleston, SC",
      "zip": "29401",
      "lat": 32.7765,
      "lng": -79.9311,
      "recurrence": "2nd Saturday monthly",
      "source_url": "https://www.rideology.io/"
    },
    {
      "name": "Cars and Coffee Myrtle Beach",
      "city": "Myrtle Beach",
      "state": "SC",
      "venue_name": "Myrtle Beach",
      "address": "Myrtle Beach, SC",
      "zip": "29577",
      "lat": 33.6891,
      "lng": -78.8867,
      "recurrence": "3rd Saturday monthly",
      "source_url": "https://www.rideology.io/"
    }
  ]
}
