{
  "batch": "Pennsylvania Full Coverage",
  "venues": [
    {
      "name": "Main Line Cars and Coffee",
      "city": "Wayne",
      "state": "PA",
      "venue_name": "1300 Morris Dr",
      "address": "1300 Morris Dr",
      "zip": "19087",
      "lat": 40.0443,
      "lng": -75.3879,
      "recurrence": "3rd Sunday monthly",
      "source_url": "https://mainlinecarsandcoffee.com/"
    },
    {
      "name": "Pittsburgh Cars N Coffee",
      "city": "Warrendale",
      "state": "PA",
      "venue_name": "Generoasta Coffee",
      "address": "Generoasta Coffee Warrendale",
      "zip": "15086",
      "lat": 40.6418,
      "lng": -80.0921,
      "recurrence": "2nd Saturday monthly",
      "source_url": "https://arpca.com/"
    },
    {
      "name": "Cars & Coffee Lehigh Valley",
      "city": "Bethlehem",
      "state": "PA",
      "venue_name": "SteelStacks",
      "address": "SteelStacks",
      "zip": "18015",
      "lat": 40.6107,
      "lng": -75.3681,
      "recurrence": "2nd Sunday monthly",
      "source_url": "https://www.steelstacks.org/carsandcoffee/"
    },
    {
      "name": "Berks Cars & Coffee",
      "city": "Wyomissing",
      "state": "PA",
      "venue_name": "Riverfront Federal Credit Union",
      "address": "2609 Keiser Boulevard",
      "zip": "19610",
      "lat": 40.3357,
      "lng": -75.9660,
      "recurrence": "1st Sunday monthly",
      "source_url": "https://riverfrontfcu.org/"
    },
    {
      "name": "Lancaster Cars and Coffee",
      "city": "Lancaster",
      "state": "PA",
      "venue_name": "Urban Werks Detailing",
      "address": "105 Independence Ct",
      "zip": "17601",
      "lat": 40.0645,
      "lng": -76.3172,
      "recurrence": "3rd Sunday monthly",
      "source_url": "https://northeastwheelsevents.com/"
    },
    {
      "name": "Harrisburg Cars and Coffee",
      "city": "Harrisburg",
      "state": "PA",
      "venue_name": "Harrisburg",
      "address": "Harrisburg, PA",
      "zip": "17101",
      "lat": 40.2737,
      "lng": -76.8844,
      "recurrence": "1st Saturday monthly",
      "source_url": "https://carsandcoffeedirectory.com/"
    }
  ]
}








