{
  "batch": "Georgia Deep Dive - Beyond Atlanta",
  "venues": [
    {
      "name": "Habersham Village Cars and Coffee Savannah",
      "city": "Savannah",
      "state": "GA",
      "venue_name": "Habersham Village",
      "address": "4511 Habersham St",
      "zip": "31405",
      "lat": 32.0335,
      "lng": -81.0755,
      "recurrence": "1st Saturday monthly",
      "source_url": "https://www.hellosavga.com/"
    },
    {
      "name": "Coffee and Cars Augusta",
      "city": "Augusta",
      "state": "GA",
      "venue_name": "Augusta-Richmond County Judicial Center",
      "address": "735 James Brown Blvd",
      "zip": "30901",
      "lat": 33.4707,
      "lng": -81.9699,
      "recurrence": "1st Saturday monthly",
      "source_url": "https://coffeeandcarsaugusta.com/"
    },
    {
      "name": "Macon Cars & Coffee",
      "city": "Macon",
      "state": "GA",
      "venue_name": "Macon",
      "address": "Macon, GA",
      "zip": "31201",
      "lat": 32.8407,
      "lng": -83.6324,
      "recurrence": "Every Saturday",
      "source_url": "https://carsandcoffeedirectory.com/"
    },
    {
      "name": "Athens Cars and Coffee",
      "city": "Athens",
      "state": "GA",
      "venue_name": "Athens",
      "address": "Athens, GA",
      "zip": "30601",
      "lat": 33.9519,
      "lng": -83.3576,
      "recurrence": "1st Saturday monthly",
      "source_url": "https://peachtreemg.com/"
    },
    {
      "name": "Cars and Coffee Columbus GA",
      "city": "Columbus",
      "state": "GA",
      "venue_name": "Columbus",
      "address": "Columbus, GA",
      "zip": "31901",
      "lat": 32.4610,
      "lng": -84.9877,
      "recurrence": "2nd Saturday monthly",
      "source_url": "https://carsandcoffeedirectory.com/"
    }
  ]
}
