{
  "batch": "New York Deep Dive - Long Island, Hudson Valley",
  "venues": [
    {
      "name": "TOCNYS Cars & Coffee Nassau",
      "city": "Massapequa",
      "state": "NY",
      "venue_name": "Massapequa Supercharger",
      "address": "Massapequa Supercharger",
      "zip": "11758",
      "lat": 40.6804,
      "lng": -73.4518,
      "recurrence": "Last Saturday monthly",
      "source_url": "https://www.tocnys.org/"
    },
    {
      "name": "TOCNYS Cars & Coffee Suffolk",
      "city": "Huntington",
      "state": "NY",
      "venue_name": "Suffolk County",
      "address": "Suffolk County",
      "zip": "11743",
      "lat": 40.8682,
      "lng": -73.4257,
      "recurrence": "4th Saturday monthly",
      "source_url": "https://www.tocnys.org/"
    },
    {
      "name": "Cars and Coffee Hamptons",
      "city": "Bridgehampton",
      "state": "NY",
      "venue_name": "Bridgehampton Museum",
      "address": "Bridgehampton Museum",
      "zip": "11932",
      "lat": 40.9379,
      "lng": -72.3007,
      "recurrence": "2nd Saturday monthly",
      "source_url": "https://www.averagesocialite.com/"
    },
    {
      "name": "Rally Point East Cars & Coffee",
      "city": "Westhampton Beach",
      "state": "NY",
      "venue_name": "Rally Point East",
      "address": "Westhampton Beach",
      "zip": "11978",
      "lat": 40.8243,
      "lng": -72.6465,
      "recurrence": "Last Saturday monthly",
      "source_url": "https://www.rallypointeast.com/"
    },
    {
      "name": "Cars and Coffee Newburgh",
      "city": "Newburgh",
      "state": "NY",
      "venue_name": "Newburgh",
      "address": "Newburgh, NY",
      "zip": "12550",
      "lat": 41.5034,
      "lng": -74.0104,
      "recurrence": "1st Sunday monthly",
      "source_url": "https://carsandcoffeeevents.com/"
    }
  ]
}

