{
  "batch": "Virginia, South Carolina, Wisconsin Expansion",
  "venues": [
    {
      "name": "Cars and Coffee Norfolk",
      "city": "Norfolk",
      "state": "VA",
      "venue_name": "Norfolk",
      "address": "Norfolk, VA",
      "zip": "23510",
      "lat": 36.8508,
      "lng": -76.2859,
      "recurrence": "4th Saturday monthly",
      "source_url": "https://www.carevents.com/"
    },
    {
      "name": "Suffolk BBQ Co Cruise-In",
      "city": "Suffolk",
      "state": "VA",
      "venue_name": "Suffolk BBQ Co at The Airport",
      "address": "1200 Gene Bolton Dr",
      "zip": "23435",
      "lat": 36.7282,
      "lng": -76.5836,
      "recurrence": "2nd Saturday monthly",
      "source_url": "https://www.ccchr.org/"
    },
    {
      "name": "Cars & Coffee Charlottesville",
      "city": "Charlottesville",
      "state": "VA",
      "venue_name": "Barracks Road Shopping Center",
      "address": "1049 Emmet St N",
      "zip": "22903",
      "lat": 38.0529,
      "lng": -78.5014,
      "recurrence": "1st Saturday monthly",
      "source_url": "https://svbcc.net/"
    },
    {
      "name": "Cars & Coffee Simpsonville SC",
      "city": "Simpsonville",
      "state": "SC",
      "venue_name": "Food Lion Gresham Plaza",
      "address": "120 SC Hwy 14",
      "zip": "29681",
      "lat": 34.7371,
      "lng": -82.2543,
      "recurrence": "1st Saturday monthly",
      "source_url": "https://upstatecarshows.com/"
    },
    {
      "name": "Greenville Cars & Coffee",
      "city": "Greenville",
      "state": "SC",
      "venue_name": "Parkway East",
      "address": "1 Parkway East",
      "zip": "29615",
      "lat": 34.8526,
      "lng": -82.3940,
      "recurrence": "Last Saturday monthly",
      "source_url": "https://garageapp.com/"
    },
    {
      "name": "Cars and Coffee Spartanburg",
      "city": "Spartanburg",
      "state": "SC",
      "venue_name": "Upstate Auto Styling",
      "address": "Upstate Auto Styling",
      "zip": "29301",
      "lat": 34.9496,
      "lng": -81.9320,
      "recurrence": "2nd Saturday monthly",
      "source_url": "https://allevents.in/"
    },
    {
      "name": "Cars Croissants & Coffee Brookfield",
      "city": "Brookfield",
      "state": "WI",
      "venue_name": "MLG Capital",
      "address": "19000 W Bluemound Road",
      "zip": "53045",
      "lat": 43.0389,
      "lng": -88.1065,
      "recurrence": "Every Sunday",
      "source_url": "https://wish.org/"
    },
    {
      "name": "Cars & Coffee Madison WI",
      "city": "Madison",
      "state": "WI",
      "venue_name": "Gruno's Diamonds",
      "address": "7311 W Towne Way",
      "zip": "53719",
      "lat": 43.0506,
      "lng": -89.4781,
      "recurrence": "Every Sunday",
      "source_url": "https://wisconsinmotorevents.com/"
    },
    {
      "name": "920 Cars & Coffee Green Bay",
      "city": "Suamico",
      "state": "WI",
      "venue_name": "Woodfield Court Motor Condos",
      "address": "2096 E Deerfield Ave",
      "zip": "54313",
      "lat": 44.6323,
      "lng": -88.0262,
      "recurrence": "2nd Saturday monthly",
      "source_url": "https://woodfieldmotorcondos.com/"
    }
  ]
}







