{
  "batch": "California Expansion 2 - Sacramento, Inland Empire",
  "venues": [
    {
      "name": "Cars and Coffee Folsom",
      "city": "El Dorado Hills",
      "state": "CA",
      "venue_name": "El Dorado Hills Town Center",
      "address": "2101 Vine Street",
      "zip": "95762",
      "lat": 38.6857,
      "lng": -121.0494,
      "recurrence": "Every Saturday",
      "source_url": "https://carsandcoffeefolsom.com/"
    },
    {
      "name": "Cars and Coffee Elk Grove",
      "city": "Elk Grove",
      "state": "CA",
      "venue_name": "Rescate Coffee",
      "address": "2475 Elk Grove Blvd",
      "zip": "95758",
      "lat": 38.4088,
      "lng": -121.3716,
      "recurrence": "Every Sunday",
      "source_url": "https://carsandcoffeeevents.com/"
    },
    {
      "name": "Cars and Coffee Roseville",
      "city": "Roseville",
      "state": "CA",
      "venue_name": "Roseville",
      "address": "Roseville, CA",
      "zip": "95678",
      "lat": 38.7521,
      "lng": -121.2880,
      "recurrence": "1st Saturday monthly",
      "source_url": "https://www.cbsnews.com/"
    },
    {
      "name": "Cars and Coffee Country Club Sacramento",
      "city": "Sacramento",
      "state": "CA",
      "venue_name": "Country Club Plaza",
      "address": "2310 Watt Avenue",
      "zip": "95825",
      "lat": 38.5994,
      "lng": -121.3924,
      "recurrence": "1st Saturday monthly",
      "source_url": "https://www.capitalcitymopars.com/"
    },
    {
      "name": "Cars and Coffee Corona",
      "city": "Corona",
      "state": "CA",
      "venue_name": "Shops at Dos Lagos",
      "address": "2780 Cabot Dr",
      "zip": "92883",
      "lat": 33.7879,
      "lng": -117.5235,
      "recurrence": "Every Saturday",
      "source_url": "https://carsandcoffeecorona.com/"
    },
    {
      "name": "Riverside Cars and Coffee",
      "city": "Riverside",
      "state": "CA",
      "venue_name": "J&M Speed Center",
      "address": "3230 Motor Circle",
      "zip": "92504",
      "lat": 33.9381,
      "lng": -117.4093,
      "recurrence": "3rd Sunday monthly",
      "source_url": "https://www.idrivesocal.com/"
    },
    {
      "name": "Grand Terrace Cars and Coffee",
      "city": "Grand Terrace",
      "state": "CA",
      "venue_name": "Barton Road",
      "address": "22203 Barton Road",
      "zip": "92313",
      "lat": 34.0339,
      "lng": -117.3137,
      "recurrence": "3rd Saturday monthly",
      "source_url": "https://www.idrivesocal.com/"
    }
  ]
}







