{
  "batch": "Texas Missing Cities Coverage",
  "venues": [
    {
      "name": "Corpus Christi Cars and Coffee",
      "city": "Corpus Christi",
      "state": "TX",
      "venue_name": "SaiGon's Civet Cafe",
      "address": "SaiGon's Civet Cafe",
      "zip": "78401",
      "lat": 27.8006,
      "lng": -97.3964,
      "recurrence": "3rd Saturday monthly",
      "source_url": "https://allevents.in/"
    },
    {
      "name": "Coffee and Cars Lubbock",
      "city": "Lubbock",
      "state": "TX",
      "venue_name": "Cook's Garage",
      "address": "11002 US-87",
      "zip": "79423",
      "lat": 33.5779,
      "lng": -101.8552,
      "recurrence": "1st Saturday monthly",
      "source_url": "https://cclbk.phonesites.com/"
    },
    {
      "name": "Amarillo Cruise Night",
      "city": "Amarillo",
      "state": "TX",
      "venue_name": "Paramount Baptist Church",
      "address": "3801 S. Western",
      "zip": "79109",
      "lat": 35.1699,
      "lng": -101.9161,
      "recurrence": "1st Saturday monthly",
      "source_url": "https://www.panhandlecouncilofcarclubs.com/"
    },
    {
      "name": "Laredo Cars and Coffee",
      "city": "Laredo",
      "state": "TX",
      "venue_name": "Laredo",
      "address": "Laredo, TX",
      "zip": "78040",
      "lat": 27.5306,
      "lng": -99.4803,
      "recurrence": "2nd Saturday monthly",
      "source_url": "https://carsandcoffeedirectory.com/"
    },
    {
      "name": "BRCC Cars and Coffee Waco",
      "city": "Waco",
      "state": "TX",
      "venue_name": "Black Rifle Coffee Company",
      "address": "2436 Creekview Dr",
      "zip": "76712",
      "lat": 31.5493,
      "lng": -97.1467,
      "recurrence": "3rd Saturday monthly",
      "source_url": "https://www.motortexas.com/"
    },
    {
      "name": "Killeen Cars and Coffee",
      "city": "Killeen",
      "state": "TX",
      "venue_name": "124 N 4th St",
      "address": "124 N 4th St",
      "zip": "76541",
      "lat": 31.1171,
      "lng": -97.7278,
      "recurrence": "3rd Saturday monthly",
      "source_url": "https://allevents.in/"
    },
    {
      "name": "Cars & Coffee Century Square College Station",
      "city": "College Station",
      "state": "TX",
      "venue_name": "Century Square",
      "address": "170 Century Square Dr",
      "zip": "77840",
      "lat": 30.6280,
      "lng": -96.3344,
      "recurrence": "3rd Sunday monthly",
      "source_url": "https://visit.cstx.gov/"
    },
    {
      "name": "Cars & Coffee Midland TX",
      "city": "Midland",
      "state": "TX",
      "venue_name": "Wagner NoÃ«l Performing Arts Center",
      "address": "1310 Farm to Market 1788",
      "zip": "79707",
      "lat": 31.9973,
      "lng": -102.0779,
      "recurrence": "4th Saturday monthly",
      "source_url": "https://www.midlandaf.com/"
    },
    {
      "name": "Odessa Cars and Coffee",
      "city": "Odessa",
      "state": "TX",
      "venue_name": "Odessa",
      "address": "Odessa, TX",
      "zip": "79761",
      "lat": 31.8457,
      "lng": -102.3676,
      "recurrence": "2nd Saturday monthly",
      "source_url": "https://carsandcoffeedirectory.com/"
    },
    {
      "name": "Abilene Cars and Coffee",
      "city": "Abilene",
      "state": "TX",
      "venue_name": "Abilene",
      "address": "Abilene, TX",
      "zip": "79601",
      "lat": 32.4487,
      "lng": -99.7331,
      "recurrence": "1st Saturday monthly",
      "source_url": "https://carsandcoffeedirectory.com/"
    },
    {
      "name": "San Angelo Cars and Coffee",
      "city": "San Angelo",
      "state": "TX",
      "venue_name": "San Angelo",
      "address": "San Angelo, TX",
      "zip": "76901",
      "lat": 31.4638,
      "lng": -100.4370,
      "recurrence": "1st Saturday monthly",
      "source_url": "https://carsandcoffeedirectory.com/"
    },
    {
      "name": "Beaumont Cars and Coffee",
      "city": "Beaumont",
      "state": "TX",
      "venue_name": "Beaumont",
      "address": "Beaumont, TX",
      "zip": "77701",
      "lat": 30.0802,
      "lng": -94.1266,
      "recurrence": "2nd Saturday monthly",
      "source_url": "https://carsandcoffeedirectory.com/"
    },
    {
      "name": "Tyler Cars and Coffee",
      "city": "Tyler",
      "state": "TX",
      "venue_name": "Tyler",
      "address": "Tyler, TX",
      "zip": "75701",
      "lat": 32.3513,
      "lng": -95.3011,
      "recurrence": "1st Saturday monthly",
      "source_url": "https://carsandcoffeedirectory.com/"
    },
    {
      "name": "Wichita Falls Cars and Coffee",
      "city": "Wichita Falls",
      "state": "TX",
      "venue_name": "Wichita Falls",
      "address": "Wichita Falls, TX",
      "zip": "76301",
      "lat": 33.9137,
      "lng": -98.4934,
      "recurrence": "2nd Saturday monthly",
      "source_url": "https://carsandcoffeedirectory.com/"
    },
    {
      "name": "McAllen Cars and Coffee",
      "city": "McAllen",
      "state": "TX",
      "venue_name": "McAllen",
      "address": "McAllen, TX",
      "zip": "78501",
      "lat": 26.2034,
      "lng": -98.23,
      "recurrence": "1st Saturday monthly",
      "source_url": "https://carsandcoffeedirectory.com/"
    },
    {
      "name": "Brownsville Cars and Coffee",
      "city": "Brownsville",
      "state": "TX",
      "venue_name": "Brownsville",
      "address": "Brownsville, TX",
      "zip": "78520",
      "lat": 25.9017,
      "lng": -97.4975,
      "recurrence": "2nd Saturday monthly",
      "source_url": "https://carsandcoffeedirectory.com/"
    },
    {
      "name": "Edinburg Cars and Coffee",
      "city": "Edinburg",
      "state": "TX",
      "venue_name": "Edinburg",
      "address": "Edinburg, TX",
      "zip": "78539",
      "lat": 26.3017,
      "lng": -98.1633,
      "recurrence": "3rd Saturday monthly",
      "source_url": "https://carsandcoffeedirectory.com/"
    },
    {
      "name": "Pharr Cars and Coffee",
      "city": "Pharr",
      "state": "TX",
      "venue_name": "Pharr",
      "address": "Pharr, TX",
      "zip": "78577",
      "lat": 26.1948,
      "lng": -98.1836,
      "recurrence": "4th Saturday monthly",
      "source_url": "https://carsandcoffeedirectory.com/"
    }
  ]
}







