{
  "batch": "Kentucky & Indiana Expansion",
  "venues": [
    {
      "name": "Bowling Green Cars and Coffee NCM",
      "city": "Bowling Green",
      "state": "KY",
      "venue_name": "National Corvette Museum",
      "address": "350 Corvette Drive",
      "zip": "42101",
      "lat": 36.9906,
      "lng": -86.3756,
      "recurrence": "Last Saturday monthly",
      "source_url": "https://carsandcoffeeevents.com/"
    },
    {
      "name": "Fante's Cars & Coffee Louisville",
      "city": "Louisville",
      "state": "KY",
      "venue_name": "Fante's",
      "address": "2501 Grinstead Drive",
      "zip": "40206",
      "lat": 38.2460,
      "lng": -85.7105,
      "recurrence": "1st Saturday monthly",
      "source_url": "https://kyanaregionaaca.com/"
    },
    {
      "name": "Captain's Quarters Cars & Coffee Louisville",
      "city": "Louisville",
      "state": "KY",
      "venue_name": "Captain's Quarters",
      "address": "5700 Captain's Quarters Road",
      "zip": "40059",
      "lat": 38.3295,
      "lng": -85.6244,
      "recurrence": "2nd Saturday monthly",
      "source_url": "https://kyanaregionaaca.com/"
    },
    {
      "name": "KYANA Cars & Coffee Louisville",
      "city": "Louisville",
      "state": "KY",
      "venue_name": "KYANA",
      "address": "3821 Hunsinger Lane",
      "zip": "40220",
      "lat": 38.1885,
      "lng": -85.6496,
      "recurrence": "3rd Saturday monthly",
      "source_url": "https://kyanaregionaaca.com/"
    },
    {
      "name": "Louisville Cars & Coffee Cox Park",
      "city": "Louisville",
      "state": "KY",
      "venue_name": "Cox Park",
      "address": "Cox Park",
      "zip": "40207",
      "lat": 38.2634,
      "lng": -85.6711,
      "recurrence": "4th Saturday monthly",
      "source_url": "https://kyanaregionaaca.com/"
    },
    {
      "name": "Lexington Cars and Coffee",
      "city": "Lexington",
      "state": "KY",
      "venue_name": "Blue Grass Stockyards",
      "address": "4561 Iron Works Pike",
      "zip": "40511",
      "lat": 38.0885,
      "lng": -84.4539,
      "recurrence": "1st Saturday monthly",
      "source_url": "https://blog.kysupplyco.com/"
    },
    {
      "name": "Porsche Cars and Coffee Lexington",
      "city": "Lexington",
      "state": "KY",
      "venue_name": "Ramsey's Diner",
      "address": "4391 Old Harrodsburg Road",
      "zip": "40513",
      "lat": 38.0012,
      "lng": -84.5444,
      "recurrence": "2nd Saturday monthly",
      "source_url": "https://bgs.pca.org/"
    },
    {
      "name": "Porsche Fort Wayne Cars & Coffee",
      "city": "Fort Wayne",
      "state": "IN",
      "venue_name": "Fort Wayne Porsche",
      "address": "5709 Illinois Rd",
      "zip": "46804",
      "lat": 41.0607,
      "lng": -85.2305,
      "recurrence": "2nd Saturday monthly",
      "source_url": "https://www.cirpca.org/"
    },
    {
      "name": "Coffee & Cars South Bend",
      "city": "South Bend",
      "state": "IN",
      "venue_name": "Eddy Street Commons",
      "address": "1234 North Eddy Street",
      "zip": "46617",
      "lat": 41.6876,
      "lng": -86.2353,
      "recurrence": "3rd Saturday monthly",
      "source_url": "https://www.eddycommons.com/"
    },
    {
      "name": "Cars & Coffee Evansville",
      "city": "Evansville",
      "state": "IN",
      "venue_name": "Washington Square Mall",
      "address": "Washington Square Mall",
      "zip": "47715",
      "lat": 37.9716,
      "lng": -87.4731,
      "recurrence": "1st Saturday monthly",
      "source_url": "https://carcruisefinder.com/"
    },
    {
      "name": "Treasure Valley Cars & Coffee",
      "city": "Meridian",
      "state": "ID",
      "venue_name": "DeMeyer Furniture",
      "address": "DeMeyer Furniture",
      "zip": "83642",
      "lat": 43.6121,
      "lng": -116.3915,
      "recurrence": "3rd Saturday monthly",
      "source_url": "https://allevents.in/"
    }
  ]
}

