{
  "batch": "Connecticut Expansion",
  "venues": [
    {
      "name": "Cars & Coffee Darien",
      "city": "Darien",
      "state": "CT",
      "venue_name": "Goodwives Shopping Center",
      "address": "25 Old Kings Highway North",
      "zip": "06820",
      "lat": 41.0537,
      "lng": -73.4712,
      "recurrence": "2nd Sunday monthly",
      "source_url": "https://carsandcoffeedarien.com/"
    },
    {
      "name": "Connecticut Shoreline Cars & Coffee",
      "city": "Guilford",
      "state": "CT",
      "venue_name": "Moroso Performance Products",
      "address": "80 Carter Drive",
      "zip": "06437",
      "lat": 41.2893,
      "lng": -72.6734,
      "recurrence": "1st Sunday monthly",
      "source_url": "https://www.ctshorelinecarsandcoffee.com/"
    },
    {
      "name": "Stamford Cars & Coffee",
      "city": "Stamford",
      "state": "CT",
      "venue_name": "Stamford",
      "address": "Stamford, CT",
      "zip": "06901",
      "lat": 41.0534,
      "lng": -73.5387,
      "recurrence": "3rd Sunday monthly",
      "source_url": "https://carsandcoffeedirectory.com/"
    }
  ]
}








