{
  "batch": "Major Metro Expansion - Atlanta, Chicago Suburbs",
  "venues": [
    {
      "name": "BMW CCA Cars and Coffee Alpharetta",
      "city": "Alpharetta",
      "state": "GA",
      "venue_name": "Fuel Coffee Roasters",
      "address": "800 North Main St, Suite 110",
      "zip": "30009",
      "lat": 34.0754,
      "lng": -84.2941,
      "recurrence": "3rd Sunday monthly",
      "source_url": "https://www.bmwcca.org/"
    },
    {
      "name": "ASC Cars and Coffee Marietta",
      "city": "Marietta",
      "state": "GA",
      "venue_name": "Atlanta Speed Company",
      "address": "1485 Canton Rd. Ste. 300",
      "zip": "30066",
      "lat": 34.0234,
      "lng": -84.5189,
      "recurrence": "2nd Saturday monthly",
      "source_url": "https://atlantaspeedcompany.com/"
    },
    {
      "name": "Cars & Tea Atlanta",
      "city": "Atlanta",
      "state": "GA",
      "venue_name": "Atlanta",
      "address": "Atlanta, GA",
      "zip": "30309",
      "lat": 33.7904,
      "lng": -84.3853,
      "recurrence": "1st Saturday monthly",
      "source_url": "https://carsandteaatlanta.godaddysites.com/"
    },
    {
      "name": "Audi Club Cars and Coffee Naperville",
      "city": "Naperville",
      "state": "IL",
      "venue_name": "Audi Naperville",
      "address": "1527 Aurora Ave",
      "zip": "60540",
      "lat": 41.7571,
      "lng": -88.1686,
      "recurrence": "3rd Saturday monthly",
      "source_url": "https://www.motorsportreg.com/"
    },
    {
      "name": "Quattros and Coffee Barrington",
      "city": "South Barrington",
      "state": "IL",
      "venue_name": "Calibre Coffee",
      "address": "Calibre Coffee",
      "zip": "60010",
      "lat": 42.0845,
      "lng": -88.1184,
      "recurrence": "1st Sunday monthly",
      "source_url": "https://www.motorsportreg.com/"
    },
    {
      "name": "Cars and Coffee at Northstar Motorsports",
      "city": "Lake Barrington",
      "state": "IL",
      "venue_name": "Northstar Motorsports",
      "address": "28144 W Industrial Avenue, Suite 108",
      "zip": "60010",
      "lat": 42.2150,
      "lng": -88.1462,
      "recurrence": "3rd Sunday monthly",
      "source_url": "https://www.motorsportreg.com/"
    },
    {
      "name": "NSSCC Race Cars and Coffee",
      "city": "South Barrington",
      "state": "IL",
      "venue_name": "The Arboretum of South Barrington",
      "address": "Arboretum of South Barrington",
      "zip": "60010",
      "lat": 42.0679,
      "lng": -88.1238,
      "recurrence": "2nd Sunday monthly",
      "source_url": "https://mcscc.motorsportreg.com/"
    }
  ]
}









