{
  "batch": "Florida Expansion 2 - South Florida",
  "venues": [
    {
      "name": "Cars & Coffee Palm Beach",
      "city": "Boca Raton",
      "state": "FL",
      "venue_name": "Boca Raton Innovation Campus",
      "address": "4850 T-Rex Avenue",
      "zip": "33431",
      "lat": 26.3683,
      "lng": -80.1289,
      "recurrence": "1st Sunday monthly",
      "source_url": "https://www.carsandcoffeepb.com/"
    },
    {
      "name": "Cars & Coffee Broward",
      "city": "Fort Lauderdale",
      "state": "FL",
      "venue_name": "Fort Lauderdale",
      "address": "Fort Lauderdale, FL",
      "zip": "33301",
      "lat": 26.1224,
      "lng": -80.1373,
      "recurrence": "3rd Sunday monthly",
      "source_url": "https://carsncoffeebroward.com/"
    },
    {
      "name": "Cars & Coffee Boca Raton Mastersons",
      "city": "Boca Raton",
      "state": "FL",
      "venue_name": "Masterson's Car Care",
      "address": "1935 NW 2nd Ave",
      "zip": "33431",
      "lat": 26.3587,
      "lng": -80.0879,
      "recurrence": "4th Saturday monthly",
      "source_url": "https://carsandcoffeeevents.com/"
    }
  ]
}

