{
  "batch": "Indiana and Kentucky",
  "venues": [
    {
      "name": "Porsche Fort Wayne Cars & Coffee",
      "city": "Fort Wayne",
      "state": "IN",
      "venue_name": "Porsche Fort Wayne",
      "address": "5709 Illinois Rd",
      "zip": "46804",
      "lat": 41.0886,
      "lng": -85.2191,
      "recurrence": "2nd Saturday monthly",
      "source_url": "https://www.cirpca.org/"
    },
    {
      "name": "Cars & Coffee Evansville",
      "city": "Evansville",
      "state": "IN",
      "venue_name": "Washington Square Mall",
      "address": "Washington Square Mall",
      "zip": "47715",
      "lat": 37.9716,
      "lng": -87.5711,
      "recurrence": "1st Saturday monthly",
      "source_url": "https://carcruisefinder.com/"
    },
    {
      "name": "Bloomington Cars & Coffee",
      "city": "Bloomington",
      "state": "IN",
      "venue_name": "Bloomington",
      "address": "Bloomington, IN",
      "zip": "47401",
      "lat": 39.1653,
      "lng": -86.5264,
      "recurrence": "Every Saturday",
      "source_url": "https://carsandcoffeedirectory.com/"
    },
    {
      "name": "Bowling Green Cars and Coffee",
      "city": "Bowling Green",
      "state": "KY",
      "venue_name": "National Corvette Museum",
      "address": "350 Corvette Drive",
      "zip": "42101",
      "lat": 36.9903,
      "lng": -86.3725,
      "recurrence": "Last Saturday monthly",
      "source_url": "https://carsandcoffeeevents.com/"
    },
    {
      "name": "Louisville Cars and Coffee",
      "city": "Louisville",
      "state": "KY",
      "venue_name": "Cox Park",
      "address": "3730 River Rd",
      "zip": "40207",
      "lat": 38.2715,
      "lng": -85.6974,
      "recurrence": "Last Saturday monthly",
      "source_url": "https://blog.kysupplyco.com/"
    },
    {
      "name": "Lexington Cars and Coffee",
      "city": "Lexington",
      "state": "KY",
      "venue_name": "Blue Grass Stockyards",
      "address": "4561 Iron Works Pike",
      "zip": "40511",
      "lat": 38.0947,
      "lng": -84.4655,
      "recurrence": "1st Saturday monthly",
      "source_url": "https://blog.kysupplyco.com/"
    }
  ]
}









