{
  "batch": "Midwest Expansion - Detroit, St Louis, Kansas City",
  "venues": [
    {
      "name": "Ann Arbor Cars and Coffee",
      "city": "Ann Arbor",
      "state": "MI",
      "venue_name": "Zingerman's Roadhouse",
      "address": "2501 Jackson Ave",
      "zip": "48103",
      "lat": 42.2808,
      "lng": -83.7786,
      "recurrence": "3rd Saturday monthly",
      "source_url": "https://rsp.pca.org/"
    },
    {
      "name": "M1 Concourse Cars and Coffee",
      "city": "Pontiac",
      "state": "MI",
      "venue_name": "M1 Concourse",
      "address": "45399 Woodward Ave",
      "zip": "48341",
      "lat": 42.6389,
      "lng": -83.2910,
      "recurrence": "1st Saturday monthly",
      "source_url": "https://m1concourse.com/"
    },
    {
      "name": "Gateway Classic Cars Detroit",
      "city": "Dearborn",
      "state": "MI",
      "venue_name": "Gateway Classic Cars",
      "address": "15011 S. Commerce Dr",
      "zip": "48120",
      "lat": 42.2942,
      "lng": -83.2296,
      "recurrence": "Last Saturday monthly",
      "source_url": "https://www.gatewayclassiccars.com/"
    },
    {
      "name": "Fast Lane Classic Cars St Charles",
      "city": "St. Charles",
      "state": "MO",
      "venue_name": "Fast Lane Classic Cars",
      "address": "427 Little Hills Industrial Blvd",
      "zip": "63301",
      "lat": 38.7701,
      "lng": -90.4974,
      "recurrence": "2nd Saturday monthly",
      "source_url": "https://bio.site/carsandcoffeestl"
    },
    {
      "name": "The Cherry Garage Cars & Coffee",
      "city": "St. Louis",
      "state": "MO",
      "venue_name": "The Cherry Garage",
      "address": "The Cherry Garage",
      "zip": "63101",
      "lat": 38.6270,
      "lng": -90.1994,
      "recurrence": "1st Sunday monthly",
      "source_url": "https://carcruisefinder.com/"
    },
    {
      "name": "Northland Cars N Coffee",
      "city": "Kansas City",
      "state": "MO",
      "venue_name": "Northland KC",
      "address": "Northland Kansas City",
      "zip": "64118",
      "lat": 39.2133,
      "lng": -94.5786,
      "recurrence": "Last Saturday monthly",
      "source_url": "https://carcruisefinder.com/"
    }
  ]
}









