{
  "batch": "Club Events 2026 Expansion",
  "events": [
    {
      "name": "Porsche Parade 2026",
      "event_type": "club-meetup",
      "city": "Lake Placid",
      "state": "NY",
      "venue_name": "Lake Placid",
      "address": "Lake Placid, NY",
      "zip": "12946",
      "latitude": 44.2795,
      "longitude": -73.9799,
      "start_date": "2026-06-14",
      "end_date": "2026-06-20",
      "source_url": "https://zone6.pca.org/event/porsche-parade-2026/",
      "cost_text": "$400-800",
      "is_free": false,
      "scope": "national",
      "featured": true,
      "description": "Porsche Club of America annual Parade. Week-long celebration with 2,000+ Porsches.",
      "brand_affinity": "Porsche"
    },
    {
      "name": "PCA Spring Treffen Palmetto Bluff 2026",
      "event_type": "club-meetup",
      "city": "Bluffton",
      "state": "SC",
      "venue_name": "Montage Palmetto Bluff",
      "address": "1 Village Park Square",
      "zip": "29910",
      "latitude": 32.2362,
      "longitude": -80.8586,
      "start_date": "2026-03-29",
      "end_date": "2026-04-02",
      "source_url": "https://pcapotomac.org/",
      "cost_text": "$300-600",
      "is_free": false,
      "scope": "national",
      "featured": true,
      "description": "PCA Spring Treffen at Montage Palmetto Bluff. Luxury Porsche gathering.",
      "brand_affinity": "Porsche"
    },
    {
      "name": "Werks Reunion Amelia Island 2026",
      "event_type": "club-meetup",
      "city": "Fernandina Beach",
      "state": "FL",
      "venue_name": "The Amelia River Club",
      "address": "The Amelia River Club",
      "zip": "32034",
      "latitude": 30.6697,
      "longitude": -81.4639,
      "start_date": "2026-03-06",
      "end_date": "2026-03-06",
      "source_url": "https://pca.motorsportreg.com/",
      "cost_text": "$50-100",
      "is_free": false,
      "scope": "national",
      "featured": true,
      "description": "Werks Reunion celebrating 50th anniversary of Porsche 924.",
      "brand_affinity": "Porsche"
    },
    {
      "name": "PCA Open House 2026",
      "event_type": "club-meetup",
      "city": "Columbia",
      "state": "MD",
      "venue_name": "PCA National Office",
      "address": "PCA National Office",
      "zip": "21046",
      "latitude": 39.2158,
      "longitude": -76.8360,
      "start_date": "2026-09-12",
      "end_date": "2026-09-12",
      "source_url": "https://pca.motorsportreg.com/",
      "cost_text": "Free",
      "is_free": true,
      "scope": "national",
      "featured": false,
      "description": "PCA Open House with Oktoberfest theme, tours, merchandise, and raffles.",
      "brand_affinity": "Porsche"
    },
    {
      "name": "Corvette Funfest 2026",
      "event_type": "club-meetup",
      "city": "Effingham",
      "state": "IL",
      "venue_name": "Mid America Motorworks",
      "address": "17082 US Hwy 45",
      "zip": "62401",
      "latitude": 39.1242,
      "longitude": -88.5434,
      "start_date": "2026-09-17",
      "end_date": "2026-09-19",
      "source_url": "https://www.mamotorworks.com/corvette/",
      "cost_text": "Free",
      "is_free": true,
      "scope": "national",
      "featured": true,
      "description": "Corvette Funfest at Mid America Motorworks. 5,000+ Corvettes expected.",
      "brand_affinity": "Chevrolet"
    },
    {
      "name": "Mustang Week 2026",
      "event_type": "club-meetup",
      "city": "Myrtle Beach",
      "state": "SC",
      "venue_name": "Myrtle Beach Speedway",
      "address": "455 Hospitality Lane",
      "zip": "29579",
      "latitude": 33.7276,
      "longitude": -78.9231,
      "start_date": "2026-09-07",
      "end_date": "2026-09-12",
      "source_url": "https://www.mustangweek.com/",
      "cost_text": "$50-150",
      "is_free": false,
      "scope": "national",
      "featured": true,
      "description": "Mustang Week in Myrtle Beach. World's largest Mustang gathering.",
      "brand_affinity": "Ford"
    },
    {
      "name": "Woodward Dream Cruise 2026",
      "event_type": "club-meetup",
      "city": "Detroit",
      "state": "MI",
      "venue_name": "Woodward Avenue",
      "address": "Woodward Avenue",
      "zip": "48220",
      "latitude": 42.4855,
      "longitude": -83.1412,
      "start_date": "2026-08-15",
      "end_date": "2026-08-15",
      "source_url": "https://woodwarddreamcruise.com/",
      "cost_text": "Free",
      "is_free": true,
      "scope": "national",
      "featured": true,
      "description": "World's largest one-day automotive event. 1.5 million spectators, 40,000 cars."
    },
    {
      "name": "Hot Rod Power Tour 2026",
      "event_type": "club-meetup",
      "city": "Various",
      "state": "USA",
      "venue_name": "Various Locations",
      "address": "Multi-city event",
      "zip": "00000",
      "latitude": 35.0000,
      "longitude": -90.0000,
      "start_date": "2026-06-07",
      "end_date": "2026-06-12",
      "source_url": "https://www.hotrod.com/events/power-tour/",
      "cost_text": "$50-100",
      "is_free": false,
      "scope": "national",
      "featured": true,
      "description": "Hot Rod Power Tour. Week-long road trip covering 1,500+ miles across America."
    },
    {
      "name": "Camaro Fest 2026",
      "event_type": "club-meetup",
      "city": "Bowling Green",
      "state": "KY",
      "venue_name": "NCM Motorsports Park",
      "address": "505 Sportscar Way",
      "zip": "42101",
      "latitude": 37.0048,
      "longitude": -86.3728,
      "start_date": "2026-07-16",
      "end_date": "2026-07-18",
      "source_url": "https://www.camarofest.com/",
      "cost_text": "$75-150",
      "is_free": false,
      "scope": "national",
      "featured": true,
      "description": "Camaro Fest celebrating all generations of Chevrolet Camaro.",
      "brand_affinity": "Chevrolet"
    },
    {
      "name": "Ford Nationals Carlisle 2026",
      "event_type": "club-meetup",
      "city": "Carlisle",
      "state": "PA",
      "venue_name": "Carlisle Fairgrounds",
      "address": "1000 Bryn Mawr Rd",
      "zip": "17013",
      "latitude": 40.1984,
      "longitude": -77.1945,
      "start_date": "2026-06-05",
      "end_date": "2026-06-07",
      "source_url": "https://carlisleevents.azurewebsites.net/events",
      "cost_text": "$15-30",
      "is_free": false,
      "scope": "national",
      "featured": true,
      "description": "Ford Nationals at Carlisle. All Ford makes and models welcome.",
      "brand_affinity": "Ford"
    },
    {
      "name": "Mopar Nationals 2026",
      "event_type": "club-meetup",
      "city": "Columbus",
      "state": "OH",
      "venue_name": "National Trail Raceway",
      "address": "2650 National Rd SW",
      "zip": "43147",
      "latitude": 39.8983,
      "longitude": -82.7658,
      "start_date": "2026-08-14",
      "end_date": "2026-08-16",
      "source_url": "https://www.moparnationals.com/",
      "cost_text": "$30-75",
      "is_free": false,
      "scope": "national",
      "featured": true,
      "description": "Mopar Nationals. Largest all-Mopar event featuring Dodge, Plymouth, Chrysler."
    },
    {
      "name": "Audi Club North America Summit 2026",
      "event_type": "club-meetup",
      "city": "Various",
      "state": "TBD",
      "venue_name": "TBD",
      "address": "TBD",
      "zip": "00000",
      "latitude": 39.0000,
      "longitude": -95.0000,
      "start_date": "2026-08-01",
      "end_date": "2026-08-03",
      "source_url": "https://audiclubna.org/",
      "cost_text": "$200-400",
      "is_free": false,
      "scope": "national",
      "featured": false,
      "description": "Audi Club North America annual summit gathering.",
      "brand_affinity": "Audi"
    }
  ]
}








