{
  "description": "Major car club annual events for 2026",
  "source": "Official club websites, research December 2024",
  "updated": "2024-12-17",
  "events": [
    {
      "name": "Porsche Parade 2026",
      "event_type": "club-meetup",
      "city": "Birmingham",
      "state": "AL",
      "start_date": "2026-06-21",
      "end_date": "2026-06-27",
      "venue_name": "Birmingham-Jefferson Convention Complex",
      "address": "2100 Richard Arrington Jr Blvd N",
      "zip": "35203",
      "latitude": 33.5207,
      "longitude": -86.8025,
      "source_url": "https://www.pca.org/parade",
      "cost_text": "$300-600",
      "is_free": false,
      "scope": "national",
      "featured": true,
      "description": "Porsche Club of America annual convention. 2,000+ Porsches.",
      "brand_affinity": "Porsche"
    },
    {
      "name": "BMW CCA Oktoberfest 2026",
      "event_type": "club-meetup",
      "city": "Monterey",
      "state": "CA",
      "start_date": "2026-09-14",
      "end_date": "2026-09-19",
      "venue_name": "WeatherTech Raceway Laguna Seca",
      "address": "1021 Monterey Salinas Hwy",
      "zip": "93940",
      "latitude": 36.5841,
      "longitude": -121.7535,
      "source_url": "https://www.bmwcca.org/oktoberfest",
      "cost_text": "$200-500",
      "is_free": false,
      "scope": "national",
      "featured": true,
      "description": "BMW Car Club of America annual gathering. Track days, concours, tours.",
      "brand_affinity": "BMW"
    },
    {
      "name": "Mercedes-Benz StarFest 2026",
      "event_type": "club-meetup",
      "city": "Monterey",
      "state": "CA",
      "start_date": "2026-05-10",
      "end_date": "2026-05-14",
      "venue_name": "Hyatt Regency Monterey",
      "address": "1 Old Golf Course Rd",
      "zip": "93940",
      "latitude": 36.5958,
      "longitude": -121.8858,
      "source_url": "https://www.mbca.org",
      "cost_text": "$200-400",
      "is_free": false,
      "scope": "national",
      "featured": true,
      "description": "Mercedes-Benz Club of America annual national event.",
      "brand_affinity": "Mercedes-Benz"
    },
    {
      "name": "Ferrari Club of America Annual Meet 2026",
      "event_type": "club-meetup",
      "city": "Scottsdale",
      "state": "AZ",
      "start_date": "2026-03-19",
      "end_date": "2026-03-22",
      "venue_name": "The Phoenician",
      "address": "6000 E Camelback Rd",
      "zip": "85251",
      "latitude": 33.5232,
      "longitude": -111.9442,
      "source_url": "https://www.ferrariclubofamerica.org",
      "cost_text": "$400-800",
      "is_free": false,
      "scope": "national",
      "featured": true,
      "description": "Ferrari Club of America national event featuring concours and rally.",
      "brand_affinity": "Ferrari"
    },
    {
      "name": "National Corvette Museum Anniversary 2026",
      "event_type": "club-meetup",
      "city": "Bowling Green",
      "state": "KY",
      "start_date": "2026-08-27",
      "end_date": "2026-08-29",
      "venue_name": "National Corvette Museum",
      "address": "350 Corvette Dr",
      "zip": "42101",
      "latitude": 37.0048,
      "longitude": -86.3737,
      "source_url": "https://www.corvettemuseum.org",
      "cost_text": "$50-150",
      "is_free": false,
      "scope": "national",
      "featured": true,
      "description": "Annual celebration at Corvette's birthplace. Museum tours, track laps.",
      "brand_affinity": "Chevrolet"
    },
    {
      "name": "Miatas at Laguna Seca 2026",
      "event_type": "club-meetup",
      "city": "Monterey",
      "state": "CA",
      "start_date": "2026-06-12",
      "end_date": "2026-06-14",
      "venue_name": "WeatherTech Raceway Laguna Seca",
      "address": "1021 Monterey Salinas Hwy",
      "zip": "93940",
      "latitude": 36.5841,
      "longitude": -121.7535,
      "source_url": "https://miataownersclub.com",
      "cost_text": "$100-300",
      "is_free": false,
      "scope": "national",
      "featured": false,
      "description": "Annual Miata gathering at Laguna Seca. Track days and social events.",
      "brand_affinity": "Mazda"
    },
    {
      "name": "Audi Club North America Summit 2026",
      "event_type": "club-meetup",
      "city": "Aspen",
      "state": "CO",
      "start_date": "2026-07-16",
      "end_date": "2026-07-19",
      "venue_name": "The Little Nell",
      "address": "675 E Durant Ave",
      "zip": "81611",
      "latitude": 39.1869,
      "longitude": -106.8177,
      "source_url": "https://audiclubna.org",
      "cost_text": "$300-500",
      "is_free": false,
      "scope": "national",
      "featured": false,
      "description": "Audi Club North America annual national event.",
      "brand_affinity": "Audi"
    },
    {
      "name": "Jaguar Clubs of North America AGM 2026",
      "event_type": "club-meetup",
      "city": "Asheville",
      "state": "NC",
      "start_date": "2026-04-23",
      "end_date": "2026-04-26",
      "venue_name": "The Omni Grove Park Inn",
      "address": "290 Macon Ave",
      "zip": "28804",
      "latitude": 35.6072,
      "longitude": -82.5478,
      "source_url": "https://jcna.com",
      "cost_text": "$200-400",
      "is_free": false,
      "scope": "national",
      "featured": false,
      "description": "Jaguar Clubs of North America Annual General Meeting.",
      "brand_affinity": "Jaguar"
    },
    {
      "name": "Vintage Mustang Owners Association Convention 2026",
      "event_type": "club-meetup",
      "city": "Tulsa",
      "state": "OK",
      "start_date": "2026-06-04",
      "end_date": "2026-06-07",
      "venue_name": "Cox Business Convention Center",
      "address": "100 Civic Center",
      "zip": "74103",
      "latitude": 36.1553,
      "longitude": -95.9928,
      "source_url": "https://vmoa.org",
      "cost_text": "$100-200",
      "is_free": false,
      "scope": "national",
      "featured": false,
      "description": "Annual gathering for vintage Mustang enthusiasts.",
      "brand_affinity": "Ford"
    },
    {
      "name": "Alfa Romeo Owners Club Convention 2026",
      "event_type": "club-meetup",
      "city": "Portland",
      "state": "OR",
      "start_date": "2026-08-06",
      "end_date": "2026-08-09",
      "venue_name": "Portland Marriott Downtown Waterfront",
      "address": "1401 SW Naito Pkwy",
      "zip": "97201",
      "latitude": 45.5126,
      "longitude": -122.6794,
      "source_url": "https://aroc-usa.org",
      "cost_text": "$200-350",
      "is_free": false,
      "scope": "national",
      "featured": false,
      "description": "Alfa Romeo Owners Club national convention.",
      "brand_affinity": "Alfa Romeo"
    },
    {
      "name": "NSX Club of America National Meet 2026",
      "event_type": "club-meetup",
      "city": "Las Vegas",
      "state": "NV",
      "start_date": "2026-09-24",
      "end_date": "2026-09-27",
      "venue_name": "Spring Mountain Motor Resort",
      "address": "3601 S Hwy 160",
      "zip": "89048",
      "latitude": 36.1074,
      "longitude": -115.9742,
      "source_url": "https://nsxca.org",
      "cost_text": "$300-500",
      "is_free": false,
      "scope": "national",
      "featured": false,
      "description": "NSX Club of America national gathering with track days.",
      "brand_affinity": "Acura"
    },
    {
      "name": "Lotus Owners Gathering 2026",
      "event_type": "club-meetup",
      "city": "Bowling Green",
      "state": "KY",
      "start_date": "2026-10-08",
      "end_date": "2026-10-11",
      "venue_name": "NCM Motorsports Park",
      "address": "505 Corvette Dr",
      "zip": "42101",
      "latitude": 37.0081,
      "longitude": -86.3826,
      "source_url": "https://lotuscarclub.org",
      "cost_text": "$200-400",
      "is_free": false,
      "scope": "national",
      "featured": false,
      "description": "Annual Lotus enthusiast gathering with track time.",
      "brand_affinity": "Lotus"
    }
  ]
}







