{
  "description": "Additional 2026 events expansion Part 2 - more concours, import shows, and regional events",
  "verified_date": "2024-12-17",
  "events": [
    {
      "name": "Cincinnati Concours d'Elegance 2026",
      "event_type": "car-show",
      "city": "Cincinnati",
      "state": "OH",
      "start_date": "2026-06-14",
      "end_date": "2026-06-14",
      "venue_name": "Ault Park",
      "address": "3600 Observatory Ave",
      "zip": "45208",
      "latitude": 39.1327,
      "longitude": -84.4133,
      "source_url": "https://ohioconcours.com/",
      "cost_text": "$35-200",
      "is_free": false,
      "scope": "regional",
      "featured": true,
      "description": "48th Annual. Featured marque: Mercedes-Benz 100th Anniversary. Fast & Furious tribute. Hangar Party June 13.",
      "brand_affinity": "Mercedes-Benz"
    },
    {
      "name": "Festivals of Speed St. Petersburg 2026",
      "event_type": "car-show",
      "city": "St. Petersburg",
      "state": "FL",
      "start_date": "2026-02-15",
      "end_date": "2026-02-15",
      "venue_name": "Vinoy Park",
      "address": "701 Bayshore Dr NE",
      "zip": "33701",
      "latitude": 27.7809,
      "longitude": -82.6310,
      "source_url": "https://festivalsofspeed.com/",
      "cost_text": "$20-150",
      "is_free": false,
      "scope": "regional",
      "featured": false,
      "description": "21st Annual. 250+ exotic, classic, muscle cars. Live music, cigar lounge, fine wines."
    },
    {
      "name": "Celebration Exotic Car Festival 2026",
      "event_type": "car-show",
      "city": "Celebration",
      "state": "FL",
      "start_date": "2026-04-10",
      "end_date": "2026-04-14",
      "venue_name": "Celebration Town Center",
      "address": "610 Sycamore St",
      "zip": "34747",
      "latitude": 28.3250,
      "longitude": -81.5398,
      "source_url": "https://www.celebrationcarshow.com/",
      "cost_text": "$25-200",
      "is_free": false,
      "scope": "regional",
      "featured": true,
      "description": "5-day event. North America's largest exotic car collection. Race cars, Hollywood cars, celebrities. Charity event."
    },
    {
      "name": "All Porsche Event Ocala 2026",
      "event_type": "car-show",
      "city": "Ocala",
      "state": "FL",
      "start_date": "2026-11-07",
      "end_date": "2026-11-07",
      "venue_name": "World Equestrian Center",
      "address": "1390 NW 80th Ave",
      "zip": "34482",
      "latitude": 29.2373,
      "longitude": -82.2158,
      "source_url": "https://festivalsofspeed.com/",
      "cost_text": "$30-100",
      "is_free": false,
      "scope": "regional",
      "featured": false,
      "description": "Exclusive Porsche event featuring vintage, contemporary, custom, Outlaw Porsches, and tractors.",
      "brand_affinity": "Porsche"
    },
    {
      "name": "Euro Auto Festival 2026",
      "event_type": "car-show",
      "city": "Greenville",
      "state": "SC",
      "start_date": "2026-04-10",
      "end_date": "2026-04-11",
      "venue_name": "Hartness Estate",
      "address": "Hartness Estate",
      "zip": "29607",
      "latitude": 34.8526,
      "longitude": -82.3940,
      "source_url": "https://euroautofestival.com/",
      "cost_text": "$50-200",
      "is_free": false,
      "scope": "regional",
      "featured": false,
      "description": "2-day European car festival featuring classics, supercars, and motorcycles. European tech meets Southern hospitality."
    },
    {
      "name": "FixxFest European Car Show 2026",
      "event_type": "car-show",
      "city": "Bradenton",
      "state": "FL",
      "start_date": "2026-03-07",
      "end_date": "2026-03-07",
      "venue_name": "Bradenton Motorsports Park",
      "address": "21000 FL-64",
      "zip": "34202",
      "latitude": 27.4584,
      "longitude": -82.4584,
      "source_url": "https://www.fixxfest.com/",
      "cost_text": "$25-50",
      "is_free": false,
      "scope": "regional",
      "featured": false,
      "description": "18th FixxFest returns after 5-year hiatus. 2,500+ European vehicles. VW, Audi, BMW, Porsche, MINI, Mercedes."
    },
    {
      "name": "Southeast Eurofest & Volksfest 2026",
      "event_type": "car-show",
      "city": "St. Augustine",
      "state": "FL",
      "start_date": "2026-01-17",
      "end_date": "2026-01-17",
      "venue_name": "Classic Car Museum of St. Augustine",
      "address": "4730 S US Hwy 1",
      "zip": "32086",
      "latitude": 29.7844,
      "longitude": -81.2859,
      "source_url": "https://www.ccmstaug.com/",
      "cost_text": "Free",
      "is_free": true,
      "scope": "regional",
      "featured": false,
      "description": "Free outdoor European car show, swap meet, food trucks. All European cars welcome."
    },
    {
      "name": "Subiefest California 2026",
      "event_type": "car-show",
      "city": "Arcadia",
      "state": "CA",
      "start_date": "2026-08-01",
      "end_date": "2026-08-01",
      "venue_name": "Santa Anita Park",
      "address": "285 W Huntington Dr",
      "zip": "91007",
      "latitude": 34.1406,
      "longitude": -118.0456,
      "source_url": "https://www.subiefest.com/",
      "cost_text": "$30-60",
      "is_free": false,
      "scope": "regional",
      "featured": false,
      "description": "Annual Subaru enthusiast gathering. All Subaru models welcome.",
      "brand_affinity": "Subaru"
    },
    {
      "name": "StanceWars New Jersey 2026",
      "event_type": "car-show",
      "city": "East Rutherford",
      "state": "NJ",
      "start_date": "2026-08-15",
      "end_date": "2026-08-15",
      "venue_name": "MetLife Stadium",
      "address": "1 MetLife Stadium Dr",
      "zip": "07073",
      "latitude": 40.8136,
      "longitude": -74.0744,
      "source_url": "https://stancewars.com/",
      "cost_text": "$30-100",
      "is_free": false,
      "scope": "regional",
      "featured": false,
      "description": "Premier stance car show at MetLife Stadium. Top 100 builds featured."
    },
    {
      "name": "DeLorean Weekend Las Vegas 2026",
      "event_type": "club-meetup",
      "city": "Las Vegas",
      "state": "NV",
      "start_date": "2026-09-24",
      "end_date": "2026-09-27",
      "venue_name": "Las Vegas",
      "address": "Las Vegas, NV",
      "zip": "89109",
      "latitude": 36.1699,
      "longitude": -115.1398,
      "source_url": "https://www.deloreanweekend.com/",
      "cost_text": "$100-300",
      "is_free": false,
      "scope": "national",
      "featured": false,
      "description": "Annual DeLorean enthusiast gathering in Las Vegas.",
      "brand_affinity": "DeLorean"
    },
    {
      "name": "Cleveland Auto Show 2026",
      "event_type": "industry",
      "city": "Cleveland",
      "state": "OH",
      "start_date": "2026-02-20",
      "end_date": "2026-03-01",
      "venue_name": "I-X Center",
      "address": "1 I-X Center Dr",
      "zip": "44135",
      "latitude": 41.4058,
      "longitude": -81.8585,
      "source_url": "https://clevelandautoshow.com/",
      "cost_text": "$15-25",
      "is_free": false,
      "scope": "regional",
      "featured": false,
      "description": "Major Midwest auto show featuring new vehicles from all manufacturers."
    },
    {
      "name": "Pomona Swap Meet January 2026",
      "event_type": "car-show",
      "city": "Pomona",
      "state": "CA",
      "start_date": "2026-01-18",
      "end_date": "2026-01-18",
      "venue_name": "Fairplex",
      "address": "1101 W McKinley Ave",
      "zip": "91768",
      "latitude": 34.0590,
      "longitude": -117.7535,
      "source_url": "https://www.pomonaswapmeet.com/",
      "cost_text": "$15-30",
      "is_free": false,
      "scope": "regional",
      "featured": false,
      "description": "SoCal's largest automotive swap meet. Classic cars, parts, memorabilia."
    },
    {
      "name": "Pomona Swap Meet April 2026",
      "event_type": "car-show",
      "city": "Pomona",
      "state": "CA",
      "start_date": "2026-04-19",
      "end_date": "2026-04-19",
      "venue_name": "Fairplex",
      "address": "1101 W McKinley Ave",
      "zip": "91768",
      "latitude": 34.0590,
      "longitude": -117.7535,
      "source_url": "https://www.pomonaswapmeet.com/",
      "cost_text": "$15-30",
      "is_free": false,
      "scope": "regional",
      "featured": false,
      "description": "SoCal's largest automotive swap meet - spring edition."
    },
    {
      "name": "Pomona Swap Meet July 2026",
      "event_type": "car-show",
      "city": "Pomona",
      "state": "CA",
      "start_date": "2026-07-12",
      "end_date": "2026-07-12",
      "venue_name": "Fairplex",
      "address": "1101 W McKinley Ave",
      "zip": "91768",
      "latitude": 34.0590,
      "longitude": -117.7535,
      "source_url": "https://www.pomonaswapmeet.com/",
      "cost_text": "$15-30",
      "is_free": false,
      "scope": "regional",
      "featured": false,
      "description": "SoCal's largest automotive swap meet - summer edition."
    },
    {
      "name": "Pomona Swap Meet October 2026",
      "event_type": "car-show",
      "city": "Pomona",
      "state": "CA",
      "start_date": "2026-10-04",
      "end_date": "2026-10-04",
      "venue_name": "Fairplex",
      "address": "1101 W McKinley Ave",
      "zip": "91768",
      "latitude": 34.0590,
      "longitude": -117.7535,
      "source_url": "https://www.pomonaswapmeet.com/",
      "cost_text": "$15-30",
      "is_free": false,
      "scope": "regional",
      "featured": false,
      "description": "SoCal's largest automotive swap meet - fall edition."
    },
    {
      "name": "Arthritis Foundation Charity Auto Show 2026",
      "event_type": "car-show",
      "city": "Dublin",
      "state": "OH",
      "start_date": "2026-07-16",
      "end_date": "2026-07-18",
      "venue_name": "Dublin Coffman Park",
      "address": "Coffman Park",
      "zip": "43017",
      "latitude": 40.0993,
      "longitude": -83.1141,
      "source_url": "https://www.visitdublinohio.com/",
      "cost_text": "$10-30",
      "is_free": false,
      "scope": "regional",
      "featured": false,
      "description": "Annual charity car show and cruise-in supporting Arthritis Foundation."
    },
    {
      "name": "Kiawah Island Motoring Retreat 2026",
      "event_type": "car-show",
      "city": "Kiawah Island",
      "state": "SC",
      "start_date": "2026-04-24",
      "end_date": "2026-04-26",
      "venue_name": "Kiawah Island Golf Resort",
      "address": "1 Sanctuary Beach Dr",
      "zip": "29455",
      "latitude": 32.6082,
      "longitude": -80.0826,
      "source_url": "https://kiawahislandmotoringretreat.com/",
      "cost_text": "$100-400",
      "is_free": false,
      "scope": "regional",
      "featured": false,
      "description": "Luxury resort concours featuring rare Rolls-Royce, Bentley, Porsche, and Auburn automobiles."
    },
    {
      "name": "The Great Car Show Kansas City 2026",
      "event_type": "car-show",
      "city": "Kansas City",
      "state": "MO",
      "start_date": "2026-04-19",
      "end_date": "2026-04-19",
      "venue_name": "National WWI Museum",
      "address": "2 Memorial Dr",
      "zip": "64108",
      "latitude": 39.0808,
      "longitude": -94.5856,
      "source_url": "https://kansascityautomuseum.com/",
      "cost_text": "$25-75",
      "is_free": false,
      "scope": "regional",
      "featured": false,
      "description": "Annual fundraiser for Kansas City Auto Museum. Diverse vehicle displays."
    },
    {
      "name": "Chicago Auto Show First Look for Charity 2026",
      "event_type": "industry",
      "city": "Chicago",
      "state": "IL",
      "start_date": "2026-02-06",
      "end_date": "2026-02-06",
      "venue_name": "McCormick Place",
      "address": "2301 S King Dr",
      "zip": "60616",
      "latitude": 41.8507,
      "longitude": -87.6174,
      "source_url": "https://www.chicagoautoshow.com/",
      "cost_text": "$300-500",
      "is_free": false,
      "scope": "national",
      "featured": false,
      "description": "Black-tie charity preview of Chicago Auto Show. Benefits 18 local charities."
    },
    {
      "name": "Audi Club Georgia Coastal Drive 2026",
      "event_type": "cruise",
      "city": "Savannah",
      "state": "GA",
      "start_date": "2026-03-06",
      "end_date": "2026-03-07",
      "venue_name": "Savannah to Beaufort",
      "address": "Savannah, GA",
      "zip": "31401",
      "latitude": 32.0809,
      "longitude": -81.0912,
      "source_url": "https://audiclubna.org/",
      "cost_text": "$50-100",
      "is_free": false,
      "scope": "regional",
      "featured": false,
      "description": "Audi Club scenic drive along Atlantic Coast through Low Country. Savannah to Beaufort.",
      "brand_affinity": "Audi"
    },
    {
      "name": "Windy City BMW Annual Dinner 2026",
      "event_type": "club-meetup",
      "city": "Evanston",
      "state": "IL",
      "start_date": "2026-01-10",
      "end_date": "2026-01-10",
      "venue_name": "Double Clutch Brewing Company",
      "address": "2121 Ashland Ave",
      "zip": "60201",
      "latitude": 42.0493,
      "longitude": -87.6865,
      "source_url": "https://windycitybmw.org/",
      "cost_text": "$30-50",
      "is_free": false,
      "scope": "regional",
      "featured": false,
      "description": "BMW CCA Windy City Chapter annual dinner and awards.",
      "brand_affinity": "BMW"
    },
    {
      "name": "Windy City BMW HPDE - Autobahn May 2026",
      "event_type": "track-day",
      "city": "Joliet",
      "state": "IL",
      "start_date": "2026-05-16",
      "end_date": "2026-05-17",
      "venue_name": "Autobahn Country Club",
      "address": "3795 W 183rd St",
      "zip": "60433",
      "latitude": 41.5059,
      "longitude": -88.0595,
      "source_url": "https://windycitybmw.org/",
      "cost_text": "$300-500",
      "is_free": false,
      "scope": "regional",
      "featured": false,
      "description": "BMW CCA Windy City Chapter High Performance Driving Event at Autobahn Country Club.",
      "brand_affinity": "BMW"
    },
    {
      "name": "Windy City BMW HPDE - Blackhawk August 2026",
      "event_type": "track-day",
      "city": "South Beloit",
      "state": "IL",
      "start_date": "2026-08-21",
      "end_date": "2026-08-21",
      "venue_name": "Blackhawk Farms Raceway",
      "address": "15538 Prairie Rd",
      "zip": "61080",
      "latitude": 42.4373,
      "longitude": -88.9931,
      "source_url": "https://windycitybmw.org/",
      "cost_text": "$200-400",
      "is_free": false,
      "scope": "regional",
      "featured": false,
      "description": "BMW CCA Windy City Chapter HPDE at Blackhawk Farms Raceway.",
      "brand_affinity": "BMW"
    }
  ]
}
