{
  "description": "Comprehensive 2026 events expansion - researched and verified December 17, 2024",
  "verified_date": "2024-12-17",
  "events": [
    {
      "name": "Werks Reunion Amelia Island 2026",
      "event_type": "car-show",
      "city": "Fernandina Beach",
      "state": "FL",
      "start_date": "2026-03-06",
      "end_date": "2026-03-06",
      "venue_name": "The Amelia River Club",
      "address": "Amelia River Club",
      "zip": "32034",
      "latitude": 30.6698,
      "longitude": -81.4626,
      "source_url": "https://www.pca.org/events/werks-reunion",
      "cost_text": "$50-100",
      "is_free": false,
      "scope": "national",
      "featured": true,
      "description": "PCA Werks Reunion celebrating 50th anniversary of Porsche 924. 800+ Porsches on display.",
      "brand_affinity": "Porsche"
    },
    {
      "name": "PCA Treffen Lowcountry 2026",
      "event_type": "club-meetup",
      "city": "Bluffton",
      "state": "SC",
      "start_date": "2026-03-29",
      "end_date": "2026-04-02",
      "venue_name": "Montage Palmetto Bluff",
      "address": "Palmetto Bluff",
      "zip": "29910",
      "latitude": 32.1893,
      "longitude": -80.8545,
      "source_url": "https://www.pca.org/events/treffen",
      "cost_text": "$500-1000",
      "is_free": false,
      "scope": "national",
      "featured": true,
      "description": "PCA Spring Treffen at luxury Palmetto Bluff resort. Multi-day driving tours, dinners, and social events.",
      "brand_affinity": "Porsche"
    },
    {
      "name": "PCA Open House 2026",
      "event_type": "club-meetup",
      "city": "Columbia",
      "state": "MD",
      "start_date": "2026-09-12",
      "end_date": "2026-09-12",
      "venue_name": "PCA National Office",
      "address": "PCA National Office",
      "zip": "21046",
      "latitude": 39.2156,
      "longitude": -76.8395,
      "source_url": "https://www.pca.org/events",
      "cost_text": "Free",
      "is_free": true,
      "scope": "regional",
      "featured": false,
      "description": "Annual PCA Open House with Oktoberfest theme at PCA National headquarters.",
      "brand_affinity": "Porsche"
    },
    {
      "name": "Werks Reunion Monterey 2026",
      "event_type": "car-show",
      "city": "Monterey",
      "state": "CA",
      "start_date": "2026-08-14",
      "end_date": "2026-08-14",
      "venue_name": "Monterey Pines Golf Course",
      "address": "Monterey Pines Golf Club",
      "zip": "93940",
      "latitude": 36.5841,
      "longitude": -121.7535,
      "source_url": "https://www.pca.org/events/werks-reunion",
      "cost_text": "$50-100",
      "is_free": false,
      "scope": "national",
      "featured": true,
      "description": "PCA Werks Reunion during Monterey Car Week. 1,000+ Porsches on display.",
      "brand_affinity": "Porsche"
    },
    {
      "name": "PCA Treffen at Sea 2026",
      "event_type": "cruise",
      "city": "Vancouver",
      "state": "BC",
      "start_date": "2026-09-19",
      "end_date": "2026-09-25",
      "venue_name": "Princess Cruises",
      "address": "Vancouver to Los Angeles",
      "zip": "V6C",
      "latitude": 49.2827,
      "longitude": -123.1207,
      "source_url": "https://pca.princesspartnerships.com/",
      "cost_text": "$2000+",
      "is_free": false,
      "scope": "national",
      "featured": false,
      "description": "6-day Pacific Wine Country cruise from Vancouver to LA with stops in SF and Santa Barbara.",
      "brand_affinity": "Porsche"
    },
    {
      "name": "BMW CCA Club Racing School - VIR 2026",
      "event_type": "track-day",
      "city": "Alton",
      "state": "VA",
      "start_date": "2026-03-26",
      "end_date": "2026-03-27",
      "venue_name": "Virginia International Raceway",
      "address": "1245 Pine Tree Rd",
      "zip": "24520",
      "latitude": 36.5667,
      "longitude": -79.2069,
      "source_url": "https://bmwccaclubracing.com/schedule/",
      "cost_text": "$500-800",
      "is_free": false,
      "scope": "national",
      "featured": false,
      "description": "BMW CCA Club Racing School at VIR. Learn race craft from experienced instructors.",
      "brand_affinity": "BMW"
    },
    {
      "name": "BMW CCA Club Race - VIR 2026",
      "event_type": "track-day",
      "city": "Alton",
      "state": "VA",
      "start_date": "2026-03-27",
      "end_date": "2026-03-29",
      "venue_name": "Virginia International Raceway",
      "address": "1245 Pine Tree Rd",
      "zip": "24520",
      "latitude": 36.5667,
      "longitude": -79.2069,
      "source_url": "https://bmwccaclubracing.com/schedule/",
      "cost_text": "$400-600",
      "is_free": false,
      "scope": "national",
      "featured": false,
      "description": "BMW CCA Club Race weekend at Virginia International Raceway.",
      "brand_affinity": "BMW"
    },
    {
      "name": "BMW CCA Club Race - Summit Point May 2026",
      "event_type": "track-day",
      "city": "Summit Point",
      "state": "WV",
      "start_date": "2026-05-01",
      "end_date": "2026-05-03",
      "venue_name": "Summit Point Motorsports Park",
      "address": "201 Motorsport Rd",
      "zip": "25446",
      "latitude": 39.2321,
      "longitude": -77.9668,
      "source_url": "https://bmwccaclubracing.com/schedule/",
      "cost_text": "$400-600",
      "is_free": false,
      "scope": "national",
      "featured": false,
      "description": "BMW CCA Club Race at Summit Point, hosted by National Capital Chapter.",
      "brand_affinity": "BMW"
    },
    {
      "name": "BMW CCA Club Race - Watkins Glen 2026",
      "event_type": "track-day",
      "city": "Watkins Glen",
      "state": "NY",
      "start_date": "2026-05-15",
      "end_date": "2026-05-17",
      "venue_name": "Watkins Glen International",
      "address": "2790 County Route 16",
      "zip": "14891",
      "latitude": 42.3369,
      "longitude": -76.9275,
      "source_url": "https://bmwccaclubracing.com/schedule/",
      "cost_text": "$400-600",
      "is_free": false,
      "scope": "national",
      "featured": false,
      "description": "BMW CCA Club Race at legendary Watkins Glen.",
      "brand_affinity": "BMW"
    },
    {
      "name": "BMW CCA Ice Gymkhana 2026",
      "event_type": "autocross",
      "city": "Georgetown",
      "state": "CO",
      "start_date": "2026-02-20",
      "end_date": "2026-02-20",
      "venue_name": "Georgetown Lake",
      "address": "Georgetown Lake",
      "zip": "80444",
      "latitude": 39.7061,
      "longitude": -105.6974,
      "source_url": "https://www.rmcbmwcca.org/",
      "cost_text": "$100-200",
      "is_free": false,
      "scope": "regional",
      "featured": false,
      "description": "Rocky Mountain BMW CCA Ice Gymkhana on frozen Georgetown Lake.",
      "brand_affinity": "BMW"
    },
    {
      "name": "BMW Performance Center Experience 2026",
      "event_type": "track-day",
      "city": "Thermal",
      "state": "CA",
      "start_date": "2026-01-31",
      "end_date": "2026-01-31",
      "venue_name": "BMW Performance Center West",
      "address": "60-900 Desert Horizons Dr",
      "zip": "92274",
      "latitude": 33.6453,
      "longitude": -116.1653,
      "source_url": "https://www.sdbmwcca.com/",
      "cost_text": "$500-1000",
      "is_free": false,
      "scope": "regional",
      "featured": false,
      "description": "San Diego BMW CCA event at BMW Performance Center West in Thermal.",
      "brand_affinity": "BMW"
    },
    {
      "name": "Pittsburgh Vintage Grand Prix 2026",
      "event_type": "car-show",
      "city": "Pittsburgh",
      "state": "PA",
      "start_date": "2026-07-18",
      "end_date": "2026-07-19",
      "venue_name": "Schenley Park",
      "address": "Schenley Park",
      "zip": "15213",
      "latitude": 40.4353,
      "longitude": -79.9419,
      "source_url": "https://pvgp.org/",
      "cost_text": "$10 donation",
      "is_free": false,
      "scope": "regional",
      "featured": true,
      "description": "Vintage car races through Schenley Park streets. International Car Show with 3,000 vehicles. BMW featured marque for 2026.",
      "brand_affinity": "BMW"
    },
    {
      "name": "Hilton Head Island Concours d'Elegance 2026",
      "event_type": "car-show",
      "city": "Hilton Head Island",
      "state": "SC",
      "start_date": "2026-10-29",
      "end_date": "2026-11-01",
      "venue_name": "Port Royal Golf Club",
      "address": "Port Royal Golf Club",
      "zip": "29928",
      "latitude": 32.1765,
      "longitude": -80.7500,
      "source_url": "https://www.hhiconcours.com/",
      "cost_text": "$75-300",
      "is_free": false,
      "scope": "national",
      "featured": true,
      "description": "Premier Lowcountry concours featuring Jaguar as honored marque. Rare automobiles in stunning coastal setting.",
      "brand_affinity": "Jaguar"
    },
    {
      "name": "Greenwich Concours d'Elegance 2026",
      "event_type": "car-show",
      "city": "Greenwich",
      "state": "CT",
      "start_date": "2026-05-29",
      "end_date": "2026-05-31",
      "venue_name": "Roger Sherman Baldwin Park",
      "address": "Roger Sherman Baldwin Park",
      "zip": "06830",
      "latitude": 41.0262,
      "longitude": -73.6282,
      "source_url": "https://www.greenwichconcours.com/",
      "cost_text": "$50-150",
      "is_free": false,
      "scope": "national",
      "featured": true,
      "description": "3-day event: Grand Tour Friday, Concours de Sport Saturday, Concours d'Elegance Sunday. Test drives available."
    },
    {
      "name": "La Jolla Concours d'Elegance 2026",
      "event_type": "car-show",
      "city": "La Jolla",
      "state": "CA",
      "start_date": "2026-04-24",
      "end_date": "2026-04-26",
      "venue_name": "La Jolla Cove",
      "address": "La Jolla Cove",
      "zip": "92037",
      "latitude": 32.8503,
      "longitude": -117.2711,
      "source_url": "https://lajollaconcours.com/",
      "cost_text": "$75-250",
      "is_free": false,
      "scope": "regional",
      "featured": true,
      "description": "20th Annual. VIP Soir√©e Friday, Porsches & Power Saturday, Concours Sunday. 150+ exquisite automobiles oceanside."
    },
    {
      "name": "Keels & Wheels Concours d'Elegance 2026",
      "event_type": "car-show",
      "city": "Seabrook",
      "state": "TX",
      "start_date": "2026-04-25",
      "end_date": "2026-04-26",
      "venue_name": "Lakewood Yacht Club",
      "address": "2322 Lakewood Yacht Club Dr",
      "zip": "77586",
      "latitude": 29.5637,
      "longitude": -95.0267,
      "source_url": "https://keels-wheels.com/",
      "cost_text": "$40-250",
      "is_free": false,
      "scope": "national",
      "featured": true,
      "description": "30th Annual. Largest classic car and antique boat show in US. 200+ automobiles and boats."
    },
    {
      "name": "Audrain Newport Concours 2026",
      "event_type": "car-show",
      "city": "Newport",
      "state": "RI",
      "start_date": "2026-10-01",
      "end_date": "2026-10-04",
      "venue_name": "The Breakers Mansion",
      "address": "The Breakers",
      "zip": "02840",
      "latitude": 41.4694,
      "longitude": -71.2989,
      "source_url": "https://www.audrainconcours.com/",
      "cost_text": "$100-500",
      "is_free": false,
      "scope": "national",
      "featured": true,
      "description": "Motor Week Oct 1-4, Concours Sunday Oct 4 at The Breakers. 2025 Motoring Event of the Year winner."
    },
    {
      "name": "Lime Rock Historic Festival 44 2026",
      "event_type": "track-day",
      "city": "Lakeville",
      "state": "CT",
      "start_date": "2026-09-04",
      "end_date": "2026-09-07",
      "venue_name": "Lime Rock Park",
      "address": "60 White Hollow Rd",
      "zip": "06039",
      "latitude": 41.9284,
      "longitude": -73.3838,
      "source_url": "https://limerock.com/events/historic-festival/",
      "cost_text": "$30-100",
      "is_free": false,
      "scope": "national",
      "featured": true,
      "description": "Labor Day Weekend. Featuring Alfa Romeo, Historic Trans Am, Formula Junior. 17-mile parade, Sunday Concours with 1,000 cars.",
      "brand_affinity": "Alfa Romeo"
    },
    {
      "name": "San Marino Motor Classic 2026",
      "event_type": "car-show",
      "city": "San Marino",
      "state": "CA",
      "start_date": "2026-06-14",
      "end_date": "2026-06-14",
      "venue_name": "Lacy Park",
      "address": "1485 Virginia Rd",
      "zip": "91108",
      "latitude": 34.1166,
      "longitude": -118.1065,
      "source_url": "https://sanmarinomotorclassic.com/",
      "cost_text": "$75-200",
      "is_free": false,
      "scope": "regional",
      "featured": false,
      "description": "350+ concours-level collector cars. Automobile Fine Arts Society exposition June 13."
    },
    {
      "name": "Cavallino Classic 2026",
      "event_type": "car-show",
      "city": "Boca Raton",
      "state": "FL",
      "start_date": "2026-02-13",
      "end_date": "2026-02-16",
      "venue_name": "The Boca Raton Resort",
      "address": "501 E Camino Real",
      "zip": "33432",
      "latitude": 26.3496,
      "longitude": -80.0684,
      "source_url": "https://cavallinoclassic.com/",
      "cost_text": "$100-500",
      "is_free": false,
      "scope": "national",
      "featured": true,
      "description": "35th Anniversary. Premier Ferrari concours, moves to Boca Raton for 2026. 100+ Ferraris.",
      "brand_affinity": "Ferrari"
    },
    {
      "name": "Delray Beach Concours d'Elegance 2026",
      "event_type": "car-show",
      "city": "Delray Beach",
      "state": "FL",
      "start_date": "2026-04-17",
      "end_date": "2026-04-19",
      "venue_name": "Old School Square",
      "address": "51 N Swinton Ave",
      "zip": "33444",
      "latitude": 26.4615,
      "longitude": -80.0728,
      "source_url": "https://www.delrayconcours.com/",
      "cost_text": "$50-150",
      "is_free": false,
      "scope": "regional",
      "featured": false,
      "description": "5th Annual International Delray Beach Concours d'Elegance."
    },
    {
      "name": "MCA River City Mustang Stampede 2026",
      "event_type": "car-show",
      "city": "Jacksonville",
      "state": "FL",
      "start_date": "2026-03-27",
      "end_date": "2026-03-29",
      "venue_name": "J-Tech Institute",
      "address": "J-Tech Institute",
      "zip": "32256",
      "latitude": 30.2213,
      "longitude": -81.5549,
      "source_url": "https://mcashows.com/",
      "cost_text": "$50-100",
      "is_free": false,
      "scope": "national",
      "featured": true,
      "description": "MCA National Show #1 of 4 celebrating MCA's 50th anniversary. 3-day judged show.",
      "brand_affinity": "Ford"
    },
    {
      "name": "MCA Ponies in the Ozarks 2026",
      "event_type": "car-show",
      "city": "Gravois Mills",
      "state": "MO",
      "start_date": "2026-05-21",
      "end_date": "2026-05-24",
      "venue_name": "Ozark International Raceway",
      "address": "Ozark International Raceway",
      "zip": "65037",
      "latitude": 38.2240,
      "longitude": -92.8032,
      "source_url": "https://mcashows.com/",
      "cost_text": "$50-150",
      "is_free": false,
      "scope": "national",
      "featured": true,
      "description": "MCA National Show with 3-day judged show + 2-day track event May 23-24.",
      "brand_affinity": "Ford"
    },
    {
      "name": "Mustangs on the Mother Road 2026",
      "event_type": "car-show",
      "city": "Tulsa",
      "state": "OK",
      "start_date": "2026-07-24",
      "end_date": "2026-07-26",
      "venue_name": "Marriott Tulsa Southern Hills",
      "address": "Marriott Southern Hills",
      "zip": "74135",
      "latitude": 36.0605,
      "longitude": -95.9485,
      "source_url": "https://mcashows.com/",
      "cost_text": "$50-100",
      "is_free": false,
      "scope": "national",
      "featured": true,
      "description": "MCA National Show celebrating Route 66 100th anniversary on 'The Mother Road'.",
      "brand_affinity": "Ford"
    },
    {
      "name": "MCA 50th Anniversary Celebration 2026",
      "event_type": "car-show",
      "city": "Braselton",
      "state": "GA",
      "start_date": "2026-08-28",
      "end_date": "2026-08-30",
      "venue_name": "Michelin Raceway Road Atlanta",
      "address": "5300 Winder Hwy",
      "zip": "30517",
      "latitude": 34.1468,
      "longitude": -83.8113,
      "source_url": "https://mcashows.com/",
      "cost_text": "$75-200",
      "is_free": false,
      "scope": "national",
      "featured": true,
      "description": "Mustang Club of America 50th Anniversary at Road Atlanta. National show + 3-day track event.",
      "brand_affinity": "Ford"
    },
    {
      "name": "Mustang Week Charlotte 2026",
      "event_type": "car-show",
      "city": "Charlotte",
      "state": "NC",
      "start_date": "2026-08-24",
      "end_date": "2026-08-29",
      "venue_name": "Charlotte Motor Speedway zMAX Dragway",
      "address": "zMAX Dragway",
      "zip": "28027",
      "latitude": 35.3490,
      "longitude": -80.6790,
      "source_url": "https://mustangweek.com/",
      "cost_text": "$50-200",
      "is_free": false,
      "scope": "national",
      "featured": true,
      "description": "Mustang Week moves to Charlotte! Massive show, drag racing, drifting, autocross, burnout contests, concerts.",
      "brand_affinity": "Ford"
    },
    {
      "name": "Corvette Funfest 2026",
      "event_type": "car-show",
      "city": "Effingham",
      "state": "IL",
      "start_date": "2026-09-18",
      "end_date": "2026-09-19",
      "venue_name": "Mid America Motorworks",
      "address": "1 Mid America Pl",
      "zip": "62401",
      "latitude": 39.1073,
      "longitude": -88.5355,
      "source_url": "https://corvettefunfest.mamotorworks.com/",
      "cost_text": "$20-40",
      "is_free": false,
      "scope": "national",
      "featured": true,
      "description": "Annual celebration at Mid America Motorworks. Swapfest, seminars, demos, Celebrity Choice Awards.",
      "brand_affinity": "Chevrolet"
    },
    {
      "name": "Slammedenuff Stoopicold 2026",
      "event_type": "car-show",
      "city": "Lebanon",
      "state": "TN",
      "start_date": "2026-01-10",
      "end_date": "2026-01-10",
      "venue_name": "Nashville Superspeedway",
      "address": "Nashville Superspeedway",
      "zip": "37090",
      "latitude": 36.0501,
      "longitude": -86.4034,
      "source_url": "https://slammedenuff.com/",
      "cost_text": "$30-50",
      "is_free": false,
      "scope": "regional",
      "featured": false,
      "description": "Slammedenuff winter show + drift experience at Nashville Superspeedway."
    },
    {
      "name": "JCCS Japanese Classic Car Show 2026",
      "event_type": "car-show",
      "city": "Long Beach",
      "state": "CA",
      "start_date": "2026-10-10",
      "end_date": "2026-10-10",
      "venue_name": "Marina Green Park",
      "address": "386 E Shoreline Dr",
      "zip": "90802",
      "latitude": 33.7620,
      "longitude": -118.1872,
      "source_url": "https://japaneseclassiccarshow.com/",
      "cost_text": "$20-40",
      "is_free": false,
      "scope": "national",
      "featured": true,
      "description": "21st Annual JCCS. Premier Japanese classic car show celebrating vintage Toyota, Datsun, Honda, Mazda, and more."
    },
    {
      "name": "Toyotafest 2026",
      "event_type": "car-show",
      "city": "Long Beach",
      "state": "CA",
      "start_date": "2026-06-27",
      "end_date": "2026-06-27",
      "venue_name": "Marina Green Park",
      "address": "386 E Shoreline Dr",
      "zip": "90802",
      "latitude": 33.7620,
      "longitude": -118.1872,
      "source_url": "https://toyotaclub.org/",
      "cost_text": "$20-40",
      "is_free": false,
      "scope": "regional",
      "featured": false,
      "description": "30th Annual All Toyotafest by Toyota Owners and Restorers Club. All Toyota models welcome.",
      "brand_affinity": "Toyota"
    },
    {
      "name": "Radnor Hunt Concours d'Elegance 2026",
      "event_type": "car-show",
      "city": "Malvern",
      "state": "PA",
      "start_date": "2026-09-11",
      "end_date": "2026-09-13",
      "venue_name": "Radnor Hunt Club",
      "address": "826 Providence Rd",
      "zip": "19355",
      "latitude": 40.0351,
      "longitude": -75.4992,
      "source_url": "https://radnorconcours.org/",
      "cost_text": "$50-150",
      "is_free": false,
      "scope": "regional",
      "featured": false,
      "description": "Annual concours at historic Radnor Hunt. Friday tour, Saturday shows, Sunday judged concours."
    },
    {
      "name": "Pasadena Chalk Festival Classic Car Show 2026",
      "event_type": "car-show",
      "city": "Pasadena",
      "state": "CA",
      "start_date": "2026-06-28",
      "end_date": "2026-06-28",
      "venue_name": "Paseo Colorado",
      "address": "280 E Colorado Blvd",
      "zip": "91101",
      "latitude": 34.1456,
      "longitude": -118.1440,
      "source_url": "https://www.visitpasadena.com/",
      "cost_text": "Free",
      "is_free": true,
      "scope": "regional",
      "featured": false,
      "description": "Classic Car Show sponsored by Pasadena PD alongside Chalk Festival with 500+ murals."
    },
    {
      "name": "Concorso Ferrari Pasadena 2026",
      "event_type": "car-show",
      "city": "Pasadena",
      "state": "CA",
      "start_date": "2026-05-17",
      "end_date": "2026-05-17",
      "venue_name": "Old Pasadena - Colorado Blvd",
      "address": "Colorado Boulevard",
      "zip": "91105",
      "latitude": 34.1456,
      "longitude": -118.1495,
      "source_url": "https://www.concorsoferrari.com/",
      "cost_text": "Free",
      "is_free": true,
      "scope": "regional",
      "featured": false,
      "description": "100+ Ferraris on display along Colorado Blvd in Old Pasadena. Early classics to modern supercars.",
      "brand_affinity": "Ferrari"
    },
    {
      "name": "NNJR PCA Lightning DE 1 2026",
      "event_type": "track-day",
      "city": "Millville",
      "state": "NJ",
      "start_date": "2026-04-18",
      "end_date": "2026-04-19",
      "venue_name": "NJMP Lightning",
      "address": "8000 Dividing Creek Rd",
      "zip": "08332",
      "latitude": 39.3578,
      "longitude": -75.0784,
      "source_url": "https://nnjr-pca.com/",
      "cost_text": "$400-600",
      "is_free": false,
      "scope": "regional",
      "featured": false,
      "description": "PCA Northern NJ Region Driver Education at NJMP Lightning circuit.",
      "brand_affinity": "Porsche"
    },
    {
      "name": "NNJR PCA Lime Rock DE 2026",
      "event_type": "track-day",
      "city": "Lakeville",
      "state": "CT",
      "start_date": "2026-06-22",
      "end_date": "2026-06-23",
      "venue_name": "Lime Rock Park",
      "address": "60 White Hollow Rd",
      "zip": "06039",
      "latitude": 41.9284,
      "longitude": -73.3838,
      "source_url": "https://nnjr-pca.com/",
      "cost_text": "$400-600",
      "is_free": false,
      "scope": "regional",
      "featured": false,
      "description": "PCA Northern NJ Region Driver Education at Lime Rock Park.",
      "brand_affinity": "Porsche"
    },
    {
      "name": "NNJR PCA Mid-Ohio DE 2026",
      "event_type": "track-day",
      "city": "Lexington",
      "state": "OH",
      "start_date": "2026-07-17",
      "end_date": "2026-07-19",
      "venue_name": "Mid-Ohio Sports Car Course",
      "address": "7721 Steam Corners Rd",
      "zip": "44904",
      "latitude": 40.6755,
      "longitude": -82.6364,
      "source_url": "https://nnjr-pca.com/",
      "cost_text": "$500-800",
      "is_free": false,
      "scope": "regional",
      "featured": false,
      "description": "PCA Northern NJ Region 3-day Driver Education at Mid-Ohio.",
      "brand_affinity": "Porsche"
    },
    {
      "name": "NNJR PCA Watkins Glen DE 2026",
      "event_type": "track-day",
      "city": "Watkins Glen",
      "state": "NY",
      "start_date": "2026-08-07",
      "end_date": "2026-08-09",
      "venue_name": "Watkins Glen International",
      "address": "2790 County Route 16",
      "zip": "14891",
      "latitude": 42.3369,
      "longitude": -76.9275,
      "source_url": "https://nnjr-pca.com/",
      "cost_text": "$500-800",
      "is_free": false,
      "scope": "regional",
      "featured": false,
      "description": "PCA Northern NJ Region 3-day instructed DE at Watkins Glen.",
      "brand_affinity": "Porsche"
    },
    {
      "name": "NNJR PCA VIR DE 2026",
      "event_type": "track-day",
      "city": "Alton",
      "state": "VA",
      "start_date": "2026-10-23",
      "end_date": "2026-10-25",
      "venue_name": "Virginia International Raceway",
      "address": "1245 Pine Tree Rd",
      "zip": "24520",
      "latitude": 36.5667,
      "longitude": -79.2069,
      "source_url": "https://nnjr-pca.com/",
      "cost_text": "$500-800",
      "is_free": false,
      "scope": "regional",
      "featured": false,
      "description": "PCA Northern NJ Region 3-day Driver Education at VIR.",
      "brand_affinity": "Porsche"
    }
  ]
}

