{
  "description": "Major automotive industry events and auto shows for 2026",
  "source": "Official event websites, research December 2024",
  "updated": "2024-12-17",
  "events": [
    {
      "name": "SEMA Show 2026",
      "event_type": "industry",
      "city": "Las Vegas",
      "state": "NV",
      "start_date": "2026-11-03",
      "end_date": "2026-11-06",
      "venue_name": "Las Vegas Convention Center",
      "address": "3150 Paradise Rd",
      "zip": "89109",
      "latitude": 36.1318,
      "longitude": -115.1517,
      "source_url": "https://www.semashow.com",
      "cost_text": "Trade only",
      "is_free": false,
      "scope": "national",
      "featured": true,
      "description": "World's largest automotive aftermarket trade show. 160,000+ attendees, 2,400+ exhibitors."
    },
    {
      "name": "PRI Show 2026",
      "event_type": "industry",
      "city": "Indianapolis",
      "state": "IN",
      "start_date": "2026-12-10",
      "end_date": "2026-12-12",
      "venue_name": "Indiana Convention Center",
      "address": "100 S Capitol Ave",
      "zip": "46225",
      "latitude": 39.7644,
      "longitude": -86.1644,
      "source_url": "https://www.performanceracing.com",
      "cost_text": "Trade only",
      "is_free": false,
      "scope": "national",
      "featured": true,
      "description": "Performance Racing Industry trade show. 1,100+ exhibitors, 40,000+ attendees."
    },
    {
      "name": "Detroit Auto Show 2026",
      "event_type": "industry",
      "city": "Detroit",
      "state": "MI",
      "start_date": "2026-01-14",
      "end_date": "2026-01-25",
      "venue_name": "Huntington Place",
      "address": "1 Washington Blvd",
      "zip": "48226",
      "latitude": 42.3286,
      "longitude": -83.0558,
      "source_url": "https://naias.com",
      "cost_text": "$20-30",
      "is_free": false,
      "scope": "national",
      "featured": true,
      "description": "North American International Auto Show. Major OEM reveals and public access."
    },
    {
      "name": "Chicago Auto Show 2026",
      "event_type": "industry",
      "city": "Chicago",
      "state": "IL",
      "start_date": "2026-02-14",
      "end_date": "2026-02-23",
      "venue_name": "McCormick Place",
      "address": "2301 S King Dr",
      "zip": "60616",
      "latitude": 41.8512,
      "longitude": -87.6177,
      "source_url": "https://www.chicagoautoshow.com",
      "cost_text": "$15-20",
      "is_free": false,
      "scope": "national",
      "featured": true,
      "description": "Nation's largest public auto show. 1 million square feet of exhibits."
    },
    {
      "name": "New York International Auto Show 2026",
      "event_type": "industry",
      "city": "New York",
      "state": "NY",
      "start_date": "2026-04-10",
      "end_date": "2026-04-19",
      "venue_name": "Jacob K. Javits Convention Center",
      "address": "429 11th Ave",
      "zip": "10001",
      "latitude": 40.7573,
      "longitude": -74.0026,
      "source_url": "https://www.autoshowny.com",
      "cost_text": "$20-30",
      "is_free": false,
      "scope": "national",
      "featured": true,
      "description": "One of the most prestigious auto shows in North America."
    },
    {
      "name": "Los Angeles Auto Show 2026",
      "event_type": "industry",
      "city": "Los Angeles",
      "state": "CA",
      "start_date": "2026-11-20",
      "end_date": "2026-11-29",
      "venue_name": "Los Angeles Convention Center",
      "address": "1201 S Figueroa St",
      "zip": "90015",
      "latitude": 34.0407,
      "longitude": -118.2668,
      "source_url": "https://laautoshow.com",
      "cost_text": "$20-25",
      "is_free": false,
      "scope": "national",
      "featured": true,
      "description": "Major West Coast auto show with global premieres."
    },
    {
      "name": "Philadelphia Auto Show 2026",
      "event_type": "industry",
      "city": "Philadelphia",
      "state": "PA",
      "start_date": "2026-01-31",
      "end_date": "2026-02-08",
      "venue_name": "Pennsylvania Convention Center",
      "address": "1101 Arch St",
      "zip": "19107",
      "latitude": 39.9545,
      "longitude": -75.1604,
      "source_url": "https://phillyautoshow.com",
      "cost_text": "$15-20",
      "is_free": false,
      "scope": "regional",
      "featured": false,
      "description": "Northeast's premier auto show featuring all major manufacturers."
    },
    {
      "name": "Washington Auto Show 2026",
      "event_type": "industry",
      "city": "Washington",
      "state": "DC",
      "start_date": "2026-01-22",
      "end_date": "2026-01-31",
      "venue_name": "Walter E. Washington Convention Center",
      "address": "801 Mt Vernon Pl NW",
      "zip": "20001",
      "latitude": 38.9047,
      "longitude": -77.0231,
      "source_url": "https://www.washingtonautoshow.com",
      "cost_text": "$15-20",
      "is_free": false,
      "scope": "regional",
      "featured": false,
      "description": "Nation's capital auto show with special exhibits."
    },
    {
      "name": "Denver Auto Show 2026",
      "event_type": "industry",
      "city": "Denver",
      "state": "CO",
      "start_date": "2026-04-08",
      "end_date": "2026-04-12",
      "venue_name": "Colorado Convention Center",
      "address": "700 14th St",
      "zip": "80202",
      "latitude": 39.7427,
      "longitude": -104.9959,
      "source_url": "https://denverautoshow.com",
      "cost_text": "$15",
      "is_free": false,
      "scope": "regional",
      "featured": false,
      "description": "Rocky Mountain region's largest auto show."
    },
    {
      "name": "Miami Auto Show 2026",
      "event_type": "industry",
      "city": "Miami",
      "state": "FL",
      "start_date": "2026-10-16",
      "end_date": "2026-10-25",
      "venue_name": "Miami Beach Convention Center",
      "address": "1901 Convention Center Dr",
      "zip": "33139",
      "latitude": 25.7951,
      "longitude": -80.1301,
      "source_url": "https://miamiautoshow.net",
      "cost_text": "$15-20",
      "is_free": false,
      "scope": "regional",
      "featured": false,
      "description": "South Florida's premier automotive event."
    },
    {
      "name": "Houston Auto Show 2026",
      "event_type": "industry",
      "city": "Houston",
      "state": "TX",
      "start_date": "2026-01-21",
      "end_date": "2026-01-25",
      "venue_name": "NRG Center",
      "address": "1 NRG Park",
      "zip": "77054",
      "latitude": 29.6847,
      "longitude": -95.4107,
      "source_url": "https://houstonautoshow.com",
      "cost_text": "$15",
      "is_free": false,
      "scope": "regional",
      "featured": false,
      "description": "Texas's largest auto show."
    },
    {
      "name": "Dallas Auto Show 2026",
      "event_type": "industry",
      "city": "Dallas",
      "state": "TX",
      "start_date": "2026-02-18",
      "end_date": "2026-02-22",
      "venue_name": "Kay Bailey Hutchison Convention Center",
      "address": "650 S Griffin St",
      "zip": "75202",
      "latitude": 32.7757,
      "longitude": -96.8006,
      "source_url": "https://dallasautoshow.com",
      "cost_text": "$15",
      "is_free": false,
      "scope": "regional",
      "featured": false,
      "description": "DFW metroplex's premier auto show."
    },
    {
      "name": "San Francisco Auto Show 2026",
      "event_type": "industry",
      "city": "San Francisco",
      "state": "CA",
      "start_date": "2026-11-26",
      "end_date": "2026-11-29",
      "venue_name": "Moscone Center",
      "address": "747 Howard St",
      "zip": "94103",
      "latitude": 37.7844,
      "longitude": -122.4003,
      "source_url": "https://sfautoshow.com",
      "cost_text": "$15",
      "is_free": false,
      "scope": "regional",
      "featured": false,
      "description": "Bay Area's largest auto show."
    },
    {
      "name": "Atlanta Auto Show 2026",
      "event_type": "industry",
      "city": "Atlanta",
      "state": "GA",
      "start_date": "2026-03-25",
      "end_date": "2026-03-29",
      "venue_name": "Georgia World Congress Center",
      "address": "285 Andrew Young International Blvd",
      "zip": "30313",
      "latitude": 33.7607,
      "longitude": -84.3954,
      "source_url": "https://atlantaautoshow.com",
      "cost_text": "$15",
      "is_free": false,
      "scope": "regional",
      "featured": false,
      "description": "Southeast's premier automotive event."
    },
    {
      "name": "Boston Auto Show 2026",
      "event_type": "industry",
      "city": "Boston",
      "state": "MA",
      "start_date": "2026-01-15",
      "end_date": "2026-01-19",
      "venue_name": "Boston Convention and Exhibition Center",
      "address": "415 Summer St",
      "zip": "02210",
      "latitude": 42.3467,
      "longitude": -71.0427,
      "source_url": "https://bostonautoshow.com",
      "cost_text": "$15-18",
      "is_free": false,
      "scope": "regional",
      "featured": false,
      "description": "New England's largest auto show."
    }
  ]
}







