{
  "batch": "Major Events 2026 - Batch 2",
  "events": [
    {
      "name": "Detroit Autorama 2026",
      "event_type": "car-show",
      "city": "Detroit",
      "state": "MI",
      "venue_name": "Huntington Place",
      "address": "1 Washington Blvd",
      "zip": "48226",
      "latitude": 42.3262,
      "longitude": -83.0559,
      "start_date": "2026-02-27",
      "end_date": "2026-03-01",
      "source_url": "https://autorama.com/attend/detroit/",
      "cost_text": "$25-40",
      "is_free": false,
      "scope": "national",
      "featured": true,
      "description": "73rd Annual Detroit Autorama. Custom cars, hot rods, and the prestigious Ridler Award."
    },
    {
      "name": "Hot August Nights 2026",
      "event_type": "car-show",
      "city": "Reno",
      "state": "NV",
      "venue_name": "Reno and Sparks",
      "address": "Reno, NV",
      "zip": "89501",
      "latitude": 39.5296,
      "longitude": -119.8138,
      "start_date": "2026-07-31",
      "end_date": "2026-08-09",
      "source_url": "https://hotaugustnights.net/",
      "cost_text": "$25-100",
      "is_free": false,
      "scope": "national",
      "featured": true,
      "description": "40th Anniversary Hot August Nights. 6,000+ classic cars, cruises, and concerts."
    },
    {
      "name": "Detroit Auto Show 2026",
      "event_type": "industry",
      "city": "Detroit",
      "state": "MI",
      "venue_name": "Huntington Place",
      "address": "1 Washington Blvd",
      "zip": "48226",
      "latitude": 42.3262,
      "longitude": -83.0559,
      "start_date": "2026-01-14",
      "end_date": "2026-01-25",
      "source_url": "https://detroitautoshow.com/",
      "cost_text": "$20-50",
      "is_free": false,
      "scope": "national",
      "featured": true,
      "description": "North American International Auto Show. Major automotive debuts and displays."
    },
    {
      "name": "ICCC Corvette Convention 2026",
      "event_type": "club-meetup",
      "city": "Little Rock",
      "state": "AR",
      "venue_name": "Wyndham Riverfront Little Rock",
      "address": "2 Riverfront Place",
      "zip": "72201",
      "latitude": 34.7465,
      "longitude": -92.2689,
      "start_date": "2026-07-19",
      "end_date": "2026-07-26",
      "source_url": "https://www.internationalcouncilcorvette.com/",
      "cost_text": "$200-400",
      "is_free": false,
      "scope": "national",
      "featured": true,
      "description": "International Council of Corvette Clubs Convention. Week-long Corvette celebration.",
      "brand_affinity": "Chevrolet"
    },
    {
      "name": "Cultural Awareness Corvette Weekend 2026",
      "event_type": "club-meetup",
      "city": "Bowling Green",
      "state": "KY",
      "venue_name": "National Corvette Museum",
      "address": "350 Corvette Dr",
      "zip": "42101",
      "latitude": 37.0073,
      "longitude": -86.3758,
      "start_date": "2026-08-20",
      "end_date": "2026-08-22",
      "source_url": "https://www.internationalcouncilcorvette.com/",
      "cost_text": "$75-150",
      "is_free": false,
      "scope": "national",
      "featured": false,
      "description": "CACW at the National Corvette Museum. Celebrating Corvette culture.",
      "brand_affinity": "Chevrolet"
    },
    {
      "name": "Werks Reunion Monterey 2026",
      "event_type": "club-meetup",
      "city": "Monterey",
      "state": "CA",
      "venue_name": "Monterey Pines Golf Club",
      "address": "Monterey Pines Golf Club",
      "zip": "93940",
      "latitude": 36.5993,
      "longitude": -121.8844,
      "start_date": "2026-08-14",
      "end_date": "2026-08-14",
      "source_url": "https://pca.motorsportreg.com/events/werks-reunion-monterey-2026",
      "cost_text": "$40-100",
      "is_free": false,
      "scope": "national",
      "featured": true,
      "description": "Werks Reunion Monterey during Car Week. Porsche showcase from classics to current.",
      "brand_affinity": "Porsche"
    },
    {
      "name": "LA Lit and Toy Meet 2026",
      "event_type": "car-show",
      "city": "Los Angeles",
      "state": "CA",
      "venue_name": "LAX Hilton Hotel",
      "address": "5711 W Century Blvd",
      "zip": "90045",
      "latitude": 33.9461,
      "longitude": -118.3822,
      "start_date": "2026-02-28",
      "end_date": "2026-02-28",
      "source_url": "https://www.porsche356registry.org/",
      "cost_text": "$15-30",
      "is_free": false,
      "scope": "regional",
      "featured": false,
      "description": "Annual Porsche and VW Literature, Toy, and Memorabilia Show.",
      "brand_affinity": "Porsche"
    },
    {
      "name": "PCA Treffen at Sea 2026",
      "event_type": "club-meetup",
      "city": "Vancouver",
      "state": "BC",
      "venue_name": "Princess Cruises",
      "address": "Vancouver to Los Angeles",
      "zip": "V6C",
      "latitude": 49.2827,
      "longitude": -123.1207,
      "start_date": "2026-09-19",
      "end_date": "2026-09-25",
      "source_url": "https://pca.princesspartnerships.com/",
      "cost_text": "$999+",
      "is_free": false,
      "scope": "national",
      "featured": true,
      "description": "PCA cruise from Vancouver to LA with Porsche seminars and wine tastings.",
      "brand_affinity": "Porsche"
    },
    {
      "name": "Porsches and Parks Great Tour 2026",
      "event_type": "cruise",
      "city": "California",
      "state": "CA",
      "venue_name": "California Tour",
      "address": "Various California",
      "zip": "00000",
      "latitude": 36.7783,
      "longitude": -119.4179,
      "start_date": "2026-04-04",
      "end_date": "2026-04-12",
      "source_url": "https://pca.motorsportreg.com/events/porsches-parks-great-tour-2026",
      "cost_text": "$2000+",
      "is_free": false,
      "scope": "national",
      "featured": false,
      "description": "9-day PCA driving tour across California's scenic routes and national parks.",
      "brand_affinity": "Porsche"
    },
    {
      "name": "Corvette Lovers Dream Rally 2026",
      "event_type": "cruise",
      "city": "Bowling Green",
      "state": "KY",
      "venue_name": "Bowling Green KOA",
      "address": "Bowling Green, KY",
      "zip": "42101",
      "latitude": 36.9903,
      "longitude": -86.4436,
      "start_date": "2026-09-10",
      "end_date": "2026-09-13",
      "source_url": "https://newmarkountryklub.com/",
      "cost_text": "$100-200",
      "is_free": false,
      "scope": "regional",
      "featured": false,
      "description": "Corvette rally with tours of National Corvette Museum.",
      "brand_affinity": "Chevrolet"
    },
    {
      "name": "Mid America Funfest 2026",
      "event_type": "club-meetup",
      "city": "Effingham",
      "state": "IL",
      "venue_name": "Mid America Motorworks",
      "address": "17082 US Hwy 45",
      "zip": "62401",
      "latitude": 39.1242,
      "longitude": -88.5434,
      "start_date": "2026-08-27",
      "end_date": "2026-08-29",
      "source_url": "https://www.mamotorworks.com/",
      "cost_text": "Free",
      "is_free": true,
      "scope": "national",
      "featured": true,
      "description": "Mid America Funfest for Corvette enthusiasts.",
      "brand_affinity": "Chevrolet"
    },
    {
      "name": "Chicago Auto Show 2026",
      "event_type": "industry",
      "city": "Chicago",
      "state": "IL",
      "venue_name": "McCormick Place",
      "address": "2301 S King Dr",
      "zip": "60616",
      "latitude": 41.8508,
      "longitude": -87.6169,
      "start_date": "2026-02-14",
      "end_date": "2026-02-23",
      "source_url": "https://chicagoautoshow.com/",
      "cost_text": "$15-30",
      "is_free": false,
      "scope": "national",
      "featured": true,
      "description": "Chicago Auto Show. Nation's largest public auto show."
    },
    {
      "name": "New York Auto Show 2026",
      "event_type": "industry",
      "city": "New York",
      "state": "NY",
      "venue_name": "Jacob Javits Center",
      "address": "655 W 34th St",
      "zip": "10001",
      "latitude": 40.7569,
      "longitude": -74.0022,
      "start_date": "2026-04-10",
      "end_date": "2026-04-19",
      "source_url": "https://autoshowny.com/",
      "cost_text": "$20-35",
      "is_free": false,
      "scope": "national",
      "featured": true,
      "description": "New York International Auto Show at Javits Center."
    },
    {
      "name": "LA Auto Show 2026",
      "event_type": "industry",
      "city": "Los Angeles",
      "state": "CA",
      "venue_name": "Los Angeles Convention Center",
      "address": "1201 S Figueroa St",
      "zip": "90015",
      "latitude": 34.0407,
      "longitude": -118.2698,
      "start_date": "2026-11-20",
      "end_date": "2026-11-29",
      "source_url": "https://laautoshow.com/",
      "cost_text": "$20-40",
      "is_free": false,
      "scope": "national",
      "featured": true,
      "description": "Los Angeles Auto Show. Major West Coast automotive showcase."
    },
    {
      "name": "Lime Rock Historic Festival 2026",
      "event_type": "track-day",
      "city": "Lakeville",
      "state": "CT",
      "venue_name": "Lime Rock Park",
      "address": "60 White Hollow Rd",
      "zip": "06039",
      "latitude": 41.9281,
      "longitude": -73.3831,
      "start_date": "2026-08-28",
      "end_date": "2026-08-30",
      "source_url": "https://limerock.com/",
      "cost_text": "$50-150",
      "is_free": false,
      "scope": "national",
      "featured": true,
      "description": "Lime Rock Historic Festival featuring vintage racing."
    },
    {
      "name": "Rolex Monterey Motorsports Reunion 2026",
      "event_type": "track-day",
      "city": "Monterey",
      "state": "CA",
      "venue_name": "WeatherTech Raceway Laguna Seca",
      "address": "1021 Monterey Salinas Hwy",
      "zip": "93940",
      "latitude": 36.5841,
      "longitude": -121.7535,
      "start_date": "2026-08-13",
      "end_date": "2026-08-15",
      "source_url": "https://www.weathertechraceway.com/",
      "cost_text": "$80-200",
      "is_free": false,
      "scope": "national",
      "featured": true,
      "description": "Rolex Monterey Motorsports Reunion. Historic racing during Car Week."
    },
    {
      "name": "The Quail A Motorsports Gathering 2026",
      "event_type": "car-show",
      "city": "Carmel",
      "state": "CA",
      "venue_name": "Quail Lodge & Golf Club",
      "address": "8205 Valley Greens Dr",
      "zip": "93923",
      "latitude": 36.5072,
      "longitude": -121.8586,
      "start_date": "2026-08-14",
      "end_date": "2026-08-14",
      "source_url": "https://signatureevents.peninsula.com/en/quail-motorsports.html",
      "cost_text": "$500-1000",
      "is_free": false,
      "scope": "national",
      "featured": true,
      "description": "The Quail, A Motorsports Gathering during Monterey Car Week."
    },
    {
      "name": "Mecum Monterey 2026",
      "event_type": "auction",
      "city": "Monterey",
      "state": "CA",
      "venue_name": "Hyatt Regency Monterey",
      "address": "1 Old Golf Course Rd",
      "zip": "93940",
      "latitude": 36.5944,
      "longitude": -121.8756,
      "start_date": "2026-08-13",
      "end_date": "2026-08-15",
      "source_url": "https://www.mecum.com/",
      "cost_text": "$30-100",
      "is_free": false,
      "scope": "national",
      "featured": true,
      "description": "Mecum Monterey auction during Car Week."
    }
  ]
}

