{
  "description": "Major 2026 events expansion - Goodguys, Carlisle, NHRA, Formula Drift, SCCA, PCA, and more",
  "verified_date": "2024-12-17",
  "events": [
    {
      "name": "Goodguys Spring Lone Star Nationals 2026",
      "event_type": "car-show",
      "city": "Fort Worth",
      "state": "TX",
      "start_date": "2026-03-06",
      "end_date": "2026-03-07",
      "venue_name": "Texas Motor Speedway",
      "address": "3545 Lone Star Circle",
      "zip": "76177",
      "latitude": 33.0373,
      "longitude": -97.2822,
      "source_url": "https://www.good-guys.com/events/2026-events",
      "cost_text": "$25-40",
      "is_free": false,
      "scope": "regional",
      "featured": false,
      "description": "16th LMC Truck Spring Lone Star Nationals. Hot rods, customs, classics."
    },
    {
      "name": "Goodguys Spring Nationals Scottsdale 2026",
      "event_type": "car-show",
      "city": "Scottsdale",
      "state": "AZ",
      "start_date": "2026-03-13",
      "end_date": "2026-03-14",
      "venue_name": "WestWorld of Scottsdale",
      "address": "16601 N Pima Rd",
      "zip": "85260",
      "latitude": 33.6251,
      "longitude": -111.8989,
      "source_url": "https://www.good-guys.com/events/2026-events",
      "cost_text": "$25-40",
      "is_free": false,
      "scope": "regional",
      "featured": false,
      "description": "16th FiTech Fuel Injection Spring Nationals. Hot rods and muscle cars in the desert."
    },
    {
      "name": "Goodguys All American Get-Together 2026",
      "event_type": "car-show",
      "city": "Pleasanton",
      "state": "CA",
      "start_date": "2026-03-28",
      "end_date": "2026-03-29",
      "venue_name": "Alameda County Fairgrounds",
      "address": "4501 Pleasanton Ave",
      "zip": "94566",
      "latitude": 37.6624,
      "longitude": -121.8847,
      "source_url": "https://www.good-guys.com/events/2026-events",
      "cost_text": "$25-40",
      "is_free": false,
      "scope": "regional",
      "featured": false,
      "description": "42nd All American Get-Together. Classic American hot rods and customs."
    },
    {
      "name": "Goodguys Del Mar Nationals 2026",
      "event_type": "car-show",
      "city": "Del Mar",
      "state": "CA",
      "start_date": "2026-04-10",
      "end_date": "2026-04-12",
      "venue_name": "Del Mar Fairgrounds",
      "address": "2260 Jimmy Durante Blvd",
      "zip": "92014",
      "latitude": 32.9595,
      "longitude": -117.2653,
      "source_url": "https://www.good-guys.com/events/2026-events",
      "cost_text": "$30-50",
      "is_free": false,
      "scope": "regional",
      "featured": true,
      "description": "25th Meguiar's Del Mar Nationals. SoCal's premier hot rod show."
    },
    {
      "name": "Goodguys North Carolina Nationals 2026",
      "event_type": "car-show",
      "city": "Raleigh",
      "state": "NC",
      "start_date": "2026-04-17",
      "end_date": "2026-04-18",
      "venue_name": "NC State Fairgrounds",
      "address": "1025 Blue Ridge Rd",
      "zip": "27607",
      "latitude": 35.7847,
      "longitude": -78.7117,
      "source_url": "https://www.good-guys.com/events/2026-events",
      "cost_text": "$25-40",
      "is_free": false,
      "scope": "regional",
      "featured": false,
      "description": "11th Griot's Garage North Carolina Nationals. East coast hot rod gathering."
    },
    {
      "name": "Goodguys Legends of Hot Rodding Nashville 2026",
      "event_type": "car-show",
      "city": "Nashville",
      "state": "TN",
      "start_date": "2026-05-15",
      "end_date": "2026-05-16",
      "venue_name": "Nashville Fairgrounds",
      "address": "625 Smith Ave",
      "zip": "37203",
      "latitude": 36.1333,
      "longitude": -86.7667,
      "source_url": "https://www.good-guys.com/events/2026-events",
      "cost_text": "$25-40",
      "is_free": false,
      "scope": "regional",
      "featured": true,
      "description": "1st BASF Legends of Hot Rodding. NEW inaugural event in Music City."
    },
    {
      "name": "Goodguys Southeastern Nationals 2026",
      "event_type": "car-show",
      "city": "Perry",
      "state": "GA",
      "start_date": "2026-06-12",
      "end_date": "2026-06-13",
      "venue_name": "Georgia National Fairgrounds",
      "address": "401 Larry Walker Pkwy",
      "zip": "31069",
      "latitude": 32.4619,
      "longitude": -83.7179,
      "source_url": "https://www.good-guys.com/events/2026-events",
      "cost_text": "$25-40",
      "is_free": false,
      "scope": "regional",
      "featured": false,
      "description": "26th Southeastern Nationals. Georgia's largest hot rod gathering."
    },
    {
      "name": "Goodguys Heartland Nationals 2026",
      "event_type": "car-show",
      "city": "Des Moines",
      "state": "IA",
      "start_date": "2026-07-03",
      "end_date": "2026-07-05",
      "venue_name": "Iowa State Fairgrounds",
      "address": "3000 E Grand Ave",
      "zip": "50317",
      "latitude": 41.5913,
      "longitude": -93.5611,
      "source_url": "https://www.good-guys.com/events/2026-events",
      "cost_text": "$30-50",
      "is_free": false,
      "scope": "regional",
      "featured": true,
      "description": "35th Speedway Motors Heartland Nationals. July 4th weekend celebration."
    },
    {
      "name": "Goodguys Summit Racing Nationals Columbus 2026",
      "event_type": "car-show",
      "city": "Columbus",
      "state": "OH",
      "start_date": "2026-07-10",
      "end_date": "2026-07-12",
      "venue_name": "Ohio Expo Center",
      "address": "717 E 17th Ave",
      "zip": "43211",
      "latitude": 39.9953,
      "longitude": -82.9988,
      "source_url": "https://www.good-guys.com/events/2026-events",
      "cost_text": "$30-50",
      "is_free": false,
      "scope": "national",
      "featured": true,
      "description": "28th Summit Racing Nationals. One of Goodguys' flagship events."
    },
    {
      "name": "Goodguys Pacific Northwest Nationals 2026",
      "event_type": "car-show",
      "city": "Puyallup",
      "state": "WA",
      "start_date": "2026-07-24",
      "end_date": "2026-07-26",
      "venue_name": "Washington State Fair Events Center",
      "address": "110 9th Ave SW",
      "zip": "98371",
      "latitude": 47.1918,
      "longitude": -122.2929,
      "source_url": "https://www.good-guys.com/events/2026-events",
      "cost_text": "$30-50",
      "is_free": false,
      "scope": "regional",
      "featured": true,
      "description": "38th Griot's Garage Pacific Northwest Nationals."
    },
    {
      "name": "Goodguys West Coast Nationals 2026",
      "event_type": "car-show",
      "city": "Pleasanton",
      "state": "CA",
      "start_date": "2026-08-21",
      "end_date": "2026-08-23",
      "venue_name": "Alameda County Fairgrounds",
      "address": "4501 Pleasanton Ave",
      "zip": "94566",
      "latitude": 37.6624,
      "longitude": -121.8847,
      "source_url": "https://www.good-guys.com/events/2026-events",
      "cost_text": "$35-60",
      "is_free": false,
      "scope": "national",
      "featured": true,
      "description": "39th West Coast Nationals. Goodguys' premier west coast event. 3,000+ vehicles."
    },
    {
      "name": "Goodguys Colorado Nationals 2026",
      "event_type": "car-show",
      "city": "Loveland",
      "state": "CO",
      "start_date": "2026-09-11",
      "end_date": "2026-09-13",
      "venue_name": "The Ranch Events Complex",
      "address": "5280 Arena Circle",
      "zip": "80538",
      "latitude": 40.4233,
      "longitude": -105.0428,
      "source_url": "https://www.good-guys.com/events/2026-events",
      "cost_text": "$30-50",
      "is_free": false,
      "scope": "regional",
      "featured": false,
      "description": "28th Griot's Garage Colorado Nationals. Rocky Mountain hot rod gathering."
    },
    {
      "name": "Goodguys Summit Racing Lone Star Nationals 2026",
      "event_type": "car-show",
      "city": "Fort Worth",
      "state": "TX",
      "start_date": "2026-09-25",
      "end_date": "2026-09-26",
      "venue_name": "Texas Motor Speedway",
      "address": "3545 Lone Star Circle",
      "zip": "76177",
      "latitude": 33.0373,
      "longitude": -97.2822,
      "source_url": "https://www.good-guys.com/events/2026-events",
      "cost_text": "$25-40",
      "is_free": false,
      "scope": "regional",
      "featured": false,
      "description": "33rd Summit Racing Lone Star Nationals."
    },
    {
      "name": "Goodguys Autumn Get-Together 2026",
      "event_type": "car-show",
      "city": "Pleasanton",
      "state": "CA",
      "start_date": "2026-11-14",
      "end_date": "2026-11-15",
      "venue_name": "Alameda County Fairgrounds",
      "address": "4501 Pleasanton Ave",
      "zip": "94566",
      "latitude": 37.6624,
      "longitude": -121.8847,
      "source_url": "https://www.good-guys.com/events/2026-events",
      "cost_text": "$25-40",
      "is_free": false,
      "scope": "regional",
      "featured": false,
      "description": "36th Fuel Curve Autumn Get-Together. Season finale in the Bay Area."
    },
    {
      "name": "Goodguys Southwest Nationals 2026",
      "event_type": "car-show",
      "city": "Scottsdale",
      "state": "AZ",
      "start_date": "2026-11-20",
      "end_date": "2026-11-22",
      "venue_name": "WestWorld of Scottsdale",
      "address": "16601 N Pima Rd",
      "zip": "85260",
      "latitude": 33.6251,
      "longitude": -111.8989,
      "source_url": "https://www.good-guys.com/events/2026-events",
      "cost_text": "$30-50",
      "is_free": false,
      "scope": "national",
      "featured": true,
      "description": "29th Speedway Motors Southwest Nationals. Season finale in Scottsdale."
    },
    {
      "name": "Spring Carlisle Collector Car Flea Market 2026",
      "event_type": "car-show",
      "city": "Carlisle",
      "state": "PA",
      "start_date": "2026-04-22",
      "end_date": "2026-04-26",
      "venue_name": "Carlisle Fairgrounds",
      "address": "1000 Bryn Mawr Rd",
      "zip": "17013",
      "latitude": 40.2010,
      "longitude": -77.1886,
      "source_url": "https://www.carlisleevents.com/",
      "cost_text": "$12-15",
      "is_free": false,
      "scope": "national",
      "featured": true,
      "description": "World's largest automotive flea market. 8,100 spaces of parts, cars, memorabilia."
    },
    {
      "name": "Carlisle Import & Performance Nationals 2026",
      "event_type": "car-show",
      "city": "Carlisle",
      "state": "PA",
      "start_date": "2026-05-15",
      "end_date": "2026-05-16",
      "venue_name": "Carlisle Fairgrounds",
      "address": "1000 Bryn Mawr Rd",
      "zip": "17013",
      "latitude": 40.2010,
      "longitude": -77.1886,
      "source_url": "https://www.carlisleevents.com/",
      "cost_text": "$15-20",
      "is_free": false,
      "scope": "national",
      "featured": false,
      "description": "Import and tuner car show. JDM, Euro, performance vehicles."
    },
    {
      "name": "Carlisle Ford Nationals 2026",
      "event_type": "car-show",
      "city": "Carlisle",
      "state": "PA",
      "start_date": "2026-06-05",
      "end_date": "2026-06-07",
      "venue_name": "Carlisle Fairgrounds",
      "address": "1000 Bryn Mawr Rd",
      "zip": "17013",
      "latitude": 40.2010,
      "longitude": -77.1886,
      "source_url": "https://www.carlisleevents.com/",
      "cost_text": "$15-20",
      "is_free": false,
      "scope": "national",
      "featured": true,
      "description": "World's largest all-Ford show. 3,300+ vehicles. Ford Bronco 60th, Roush 50th, Taurus 40th anniversaries.",
      "brand_affinity": "Ford"
    },
    {
      "name": "Carlisle GM Nationals 2026",
      "event_type": "car-show",
      "city": "Carlisle",
      "state": "PA",
      "start_date": "2026-06-19",
      "end_date": "2026-06-20",
      "venue_name": "Carlisle Fairgrounds",
      "address": "1000 Bryn Mawr Rd",
      "zip": "17013",
      "latitude": 40.2010,
      "longitude": -77.1886,
      "source_url": "https://www.carlisleevents.com/",
      "cost_text": "$15-20",
      "is_free": false,
      "scope": "national",
      "featured": false,
      "description": "All GM show: Chevrolet, Buick, Oldsmobile, Pontiac, Cadillac, GMC.",
      "brand_affinity": "Chevrolet"
    },
    {
      "name": "Carlisle Chrysler Nationals 2026",
      "event_type": "car-show",
      "city": "Carlisle",
      "state": "PA",
      "start_date": "2026-07-10",
      "end_date": "2026-07-12",
      "venue_name": "Carlisle Fairgrounds",
      "address": "1000 Bryn Mawr Rd",
      "zip": "17013",
      "latitude": 40.2010,
      "longitude": -77.1886,
      "source_url": "https://www.carlisleevents.com/",
      "cost_text": "$15-20",
      "is_free": false,
      "scope": "national",
      "featured": true,
      "description": "All Mopar show: Dodge, Chrysler, Plymouth, Jeep, Ram."
    },
    {
      "name": "Carlisle Truck Nationals 2026",
      "event_type": "car-show",
      "city": "Carlisle",
      "state": "PA",
      "start_date": "2026-08-07",
      "end_date": "2026-08-09",
      "venue_name": "Carlisle Fairgrounds",
      "address": "1000 Bryn Mawr Rd",
      "zip": "17013",
      "latitude": 40.2010,
      "longitude": -77.1886,
      "source_url": "https://www.carlisleevents.com/",
      "cost_text": "$15-20",
      "is_free": false,
      "scope": "national",
      "featured": false,
      "description": "All truck show: pickups, SUVs, vans from all manufacturers."
    },
    {
      "name": "Corvettes at Carlisle 2026",
      "event_type": "car-show",
      "city": "Carlisle",
      "state": "PA",
      "start_date": "2026-08-27",
      "end_date": "2026-08-29",
      "venue_name": "Carlisle Fairgrounds",
      "address": "1000 Bryn Mawr Rd",
      "zip": "17013",
      "latitude": 40.2010,
      "longitude": -77.1886,
      "source_url": "https://www.carlisleevents.com/",
      "cost_text": "$20-25",
      "is_free": false,
      "scope": "national",
      "featured": true,
      "description": "World's largest Corvette show. Thousands of Corvettes from C1 to C8. America's 250th celebration.",
      "brand_affinity": "Chevrolet"
    },
    {
      "name": "Fall Carlisle Collector Car Flea Market 2026",
      "event_type": "car-show",
      "city": "Carlisle",
      "state": "PA",
      "start_date": "2026-09-30",
      "end_date": "2026-10-04",
      "venue_name": "Carlisle Fairgrounds",
      "address": "1000 Bryn Mawr Rd",
      "zip": "17013",
      "latitude": 40.2010,
      "longitude": -77.1886,
      "source_url": "https://www.carlisleevents.com/",
      "cost_text": "$12-15",
      "is_free": false,
      "scope": "national",
      "featured": true,
      "description": "Fall edition of world's largest automotive flea market."
    },
    {
      "name": "NHRA Gatornationals 2026",
      "event_type": "track-day",
      "city": "Gainesville",
      "state": "FL",
      "start_date": "2026-03-05",
      "end_date": "2026-03-08",
      "venue_name": "Gainesville Raceway",
      "address": "11211 N County Rd 225",
      "zip": "32609",
      "latitude": 29.7628,
      "longitude": -82.3706,
      "source_url": "https://www.nhra.com/",
      "cost_text": "$50-150",
      "is_free": false,
      "scope": "national",
      "featured": true,
      "description": "57th annual NHRA Gatornationals. NHRA 75th anniversary season opener."
    },
    {
      "name": "NHRA Arizona Nationals 2026",
      "event_type": "track-day",
      "city": "Phoenix",
      "state": "AZ",
      "start_date": "2026-03-20",
      "end_date": "2026-03-22",
      "venue_name": "Firebird Motorsports Park",
      "address": "20000 S Maricopa Rd",
      "zip": "85139",
      "latitude": 33.0750,
      "longitude": -112.0050,
      "source_url": "https://www.nhra.com/",
      "cost_text": "$40-120",
      "is_free": false,
      "scope": "national",
      "featured": false,
      "description": "41st annual NHRA Arizona Nationals."
    },
    {
      "name": "NHRA Winternationals 2026",
      "event_type": "track-day",
      "city": "Pomona",
      "state": "CA",
      "start_date": "2026-04-09",
      "end_date": "2026-04-12",
      "venue_name": "In-N-Out Burger Pomona Dragstrip",
      "address": "2780 Fairplex Dr",
      "zip": "91768",
      "latitude": 34.0854,
      "longitude": -117.7563,
      "source_url": "https://www.nhra.com/",
      "cost_text": "$50-150",
      "is_free": false,
      "scope": "national",
      "featured": true,
      "description": "66th annual NHRA Winternationals. Historic season-opening race."
    },
    {
      "name": "NHRA 4-Wide Nationals 2026",
      "event_type": "track-day",
      "city": "Charlotte",
      "state": "NC",
      "start_date": "2026-04-24",
      "end_date": "2026-04-26",
      "venue_name": "zMAX Dragway",
      "address": "6570 Bruton Smith Blvd",
      "zip": "28027",
      "latitude": 35.3490,
      "longitude": -80.6790,
      "source_url": "https://www.nhra.com/",
      "cost_text": "$50-150",
      "is_free": false,
      "scope": "national",
      "featured": true,
      "description": "16th annual NHRA 4-Wide Nationals. Unique 4-wide racing format."
    },
    {
      "name": "NHRA Southern Nationals 2026",
      "event_type": "track-day",
      "city": "Adel",
      "state": "GA",
      "start_date": "2026-05-01",
      "end_date": "2026-05-03",
      "venue_name": "South Georgia Motorsports Park",
      "address": "100 Sportsman Club Rd",
      "zip": "31620",
      "latitude": 31.1373,
      "longitude": -83.4241,
      "source_url": "https://www.nhra.com/",
      "cost_text": "$40-120",
      "is_free": false,
      "scope": "national",
      "featured": false,
      "description": "NHRA Southern Nationals in South Georgia."
    },
    {
      "name": "NHRA Route 66 Nationals 2026",
      "event_type": "track-day",
      "city": "Chicago",
      "state": "IL",
      "start_date": "2026-05-14",
      "end_date": "2026-05-17",
      "venue_name": "Route 66 Raceway",
      "address": "500 Speedway Blvd",
      "zip": "60449",
      "latitude": 41.4738,
      "longitude": -87.6190,
      "source_url": "https://www.nhra.com/",
      "cost_text": "$50-150",
      "is_free": false,
      "scope": "national",
      "featured": true,
      "description": "26th annual Route 66 NHRA Nationals. Celebrating Route 66 100th anniversary."
    },
    {
      "name": "NHRA Potomac Nationals 2026",
      "event_type": "track-day",
      "city": "Mechanicsville",
      "state": "MD",
      "start_date": "2026-05-29",
      "end_date": "2026-05-31",
      "venue_name": "Maryland International Raceway",
      "address": "27861 Budds Creek Rd",
      "zip": "20659",
      "latitude": 38.4473,
      "longitude": -76.6750,
      "source_url": "https://www.nhra.com/",
      "cost_text": "$40-120",
      "is_free": false,
      "scope": "national",
      "featured": true,
      "description": "INAUGURAL NHRA Potomac Nationals. New event for 2026!"
    },
    {
      "name": "NHRA New England Nationals 2026",
      "event_type": "track-day",
      "city": "Epping",
      "state": "NH",
      "start_date": "2026-06-05",
      "end_date": "2026-06-07",
      "venue_name": "New England Dragway",
      "address": "280 Exeter Rd",
      "zip": "03042",
      "latitude": 42.9792,
      "longitude": -71.0673,
      "source_url": "https://www.nhra.com/",
      "cost_text": "$40-120",
      "is_free": false,
      "scope": "national",
      "featured": false,
      "description": "13th annual NHRA New England Nationals."
    },
    {
      "name": "NHRA Thunder Valley Nationals 2026",
      "event_type": "track-day",
      "city": "Bristol",
      "state": "TN",
      "start_date": "2026-06-12",
      "end_date": "2026-06-14",
      "venue_name": "Bristol Dragway",
      "address": "151 Speedway Blvd",
      "zip": "37620",
      "latitude": 36.5160,
      "longitude": -82.2569,
      "source_url": "https://www.nhra.com/",
      "cost_text": "$50-150",
      "is_free": false,
      "scope": "national",
      "featured": true,
      "description": "25th annual Thunder Valley Nationals at Thunder Valley."
    },
    {
      "name": "NHRA Summit Racing Equipment Nationals 2026",
      "event_type": "track-day",
      "city": "Norwalk",
      "state": "OH",
      "start_date": "2026-06-25",
      "end_date": "2026-06-28",
      "venue_name": "Summit Motorsports Park",
      "address": "1300 State Route 18",
      "zip": "44857",
      "latitude": 41.2109,
      "longitude": -82.6156,
      "source_url": "https://www.nhra.com/",
      "cost_text": "$50-150",
      "is_free": false,
      "scope": "national",
      "featured": true,
      "description": "20th annual Summit Racing Equipment NHRA Nationals."
    },
    {
      "name": "NHRA Sonoma Nationals 2026",
      "event_type": "track-day",
      "city": "Sonoma",
      "state": "CA",
      "start_date": "2026-07-17",
      "end_date": "2026-07-19",
      "venue_name": "Sonoma Raceway",
      "address": "29355 Arnold Dr",
      "zip": "95476",
      "latitude": 38.1610,
      "longitude": -122.4556,
      "source_url": "https://www.nhra.com/",
      "cost_text": "$50-150",
      "is_free": false,
      "scope": "national",
      "featured": false,
      "description": "38th annual Denso NHRA Sonoma Nationals."
    },
    {
      "name": "NHRA Northwest Nationals 2026",
      "event_type": "track-day",
      "city": "Seattle",
      "state": "WA",
      "start_date": "2026-07-24",
      "end_date": "2026-07-26",
      "venue_name": "Pacific Raceways",
      "address": "31001 144th Ave SE",
      "zip": "98042",
      "latitude": 47.3073,
      "longitude": -122.1505,
      "source_url": "https://www.nhra.com/",
      "cost_text": "$50-150",
      "is_free": false,
      "scope": "national",
      "featured": false,
      "description": "37th annual Muckleshoot Casino Resort NHRA Northwest Nationals."
    },
    {
      "name": "NHRA Nationals Brainerd 2026",
      "event_type": "track-day",
      "city": "Brainerd",
      "state": "MN",
      "start_date": "2026-08-20",
      "end_date": "2026-08-23",
      "venue_name": "Brainerd International Raceway",
      "address": "5523 Birchdale Rd",
      "zip": "56401",
      "latitude": 46.4344,
      "longitude": -94.2008,
      "source_url": "https://www.nhra.com/",
      "cost_text": "$50-150",
      "is_free": false,
      "scope": "national",
      "featured": true,
      "description": "44th annual NHRA Nationals at Brainerd. Zoo atmosphere!"
    },
    {
      "name": "NHRA U.S. Nationals 2026",
      "event_type": "track-day",
      "city": "Indianapolis",
      "state": "IN",
      "start_date": "2026-09-02",
      "end_date": "2026-09-07",
      "venue_name": "Lucas Oil Indianapolis Raceway Park",
      "address": "10267 E US Hwy 136",
      "zip": "46234",
      "latitude": 39.7900,
      "longitude": -86.3419,
      "source_url": "https://www.nhra.com/",
      "cost_text": "$75-200",
      "is_free": false,
      "scope": "national",
      "featured": true,
      "description": "72nd annual NHRA U.S. Nationals. The BIG GO - most prestigious drag race in the world."
    },
    {
      "name": "NHRA Reading Nationals 2026",
      "event_type": "track-day",
      "city": "Reading",
      "state": "PA",
      "start_date": "2026-09-17",
      "end_date": "2026-09-20",
      "venue_name": "Maple Grove Raceway",
      "address": "30 Stauffer Park Ln",
      "zip": "19520",
      "latitude": 40.2728,
      "longitude": -75.8411,
      "source_url": "https://www.nhra.com/",
      "cost_text": "$50-150",
      "is_free": false,
      "scope": "national",
      "featured": false,
      "description": "41st annual NHRA Reading Nationals."
    },
    {
      "name": "NHRA Midwest Nationals 2026",
      "event_type": "track-day",
      "city": "St. Louis",
      "state": "MO",
      "start_date": "2026-10-02",
      "end_date": "2026-10-04",
      "venue_name": "World Wide Technology Raceway",
      "address": "700 Raceway Blvd",
      "zip": "62040",
      "latitude": 38.6631,
      "longitude": -90.1287,
      "source_url": "https://www.nhra.com/",
      "cost_text": "$50-150",
      "is_free": false,
      "scope": "national",
      "featured": false,
      "description": "15th annual NAPA Auto Parts NHRA Midwest Nationals."
    },
    {
      "name": "NHRA Texas FallNationals 2026",
      "event_type": "track-day",
      "city": "Dallas",
      "state": "TX",
      "start_date": "2026-10-14",
      "end_date": "2026-10-18",
      "venue_name": "Texas Motorplex",
      "address": "7500 US-287",
      "zip": "75115",
      "latitude": 32.4545,
      "longitude": -96.9378,
      "source_url": "https://www.nhra.com/",
      "cost_text": "$50-150",
      "is_free": false,
      "scope": "national",
      "featured": true,
      "description": "41st annual Texas NHRA FallNationals."
    },
    {
      "name": "NHRA Nevada Nationals 2026",
      "event_type": "track-day",
      "city": "Las Vegas",
      "state": "NV",
      "start_date": "2026-10-29",
      "end_date": "2026-11-01",
      "venue_name": "The Strip at LVMS",
      "address": "7000 Las Vegas Blvd N",
      "zip": "89115",
      "latitude": 36.2720,
      "longitude": -115.0103,
      "source_url": "https://www.nhra.com/",
      "cost_text": "$50-150",
      "is_free": false,
      "scope": "national",
      "featured": true,
      "description": "26th annual NHRA Nevada Nationals. Countdown to the Championship."
    },
    {
      "name": "NHRA Finals 2026",
      "event_type": "track-day",
      "city": "Pomona",
      "state": "CA",
      "start_date": "2026-11-12",
      "end_date": "2026-11-15",
      "venue_name": "In-N-Out Burger Pomona Dragstrip",
      "address": "2780 Fairplex Dr",
      "zip": "91768",
      "latitude": 34.0854,
      "longitude": -117.7563,
      "source_url": "https://www.nhra.com/",
      "cost_text": "$75-200",
      "is_free": false,
      "scope": "national",
      "featured": true,
      "description": "61st annual NHRA Finals. Season championship finale."
    },
    {
      "name": "Formula Drift Long Beach 2026",
      "event_type": "track-day",
      "city": "Long Beach",
      "state": "CA",
      "start_date": "2026-04-10",
      "end_date": "2026-04-11",
      "venue_name": "Streets of Long Beach",
      "address": "300 E Ocean Blvd",
      "zip": "90802",
      "latitude": 33.7650,
      "longitude": -118.1892,
      "source_url": "https://www.formulad.com/",
      "cost_text": "$50-150",
      "is_free": false,
      "scope": "national",
      "featured": true,
      "description": "Formula Drift Round 1. Season opener on the iconic streets of Long Beach."
    },
    {
      "name": "Formula Drift Road Atlanta 2026",
      "event_type": "track-day",
      "city": "Braselton",
      "state": "GA",
      "start_date": "2026-05-07",
      "end_date": "2026-05-09",
      "venue_name": "Road Atlanta",
      "address": "5300 Winder Hwy",
      "zip": "30517",
      "latitude": 34.1468,
      "longitude": -83.8113,
      "source_url": "https://www.formulad.com/",
      "cost_text": "$50-150",
      "is_free": false,
      "scope": "national",
      "featured": false,
      "description": "Formula Drift Round 2. PRO and PROSPEC at Road Atlanta."
    },
    {
      "name": "Formula Drift Orlando 2026",
      "event_type": "track-day",
      "city": "Orlando",
      "state": "FL",
      "start_date": "2026-05-29",
      "end_date": "2026-05-30",
      "venue_name": "Orlando Speed World",
      "address": "19164 E Colonial Dr",
      "zip": "32820",
      "latitude": 28.5534,
      "longitude": -81.0692,
      "source_url": "https://www.formulad.com/",
      "cost_text": "$50-150",
      "is_free": false,
      "scope": "national",
      "featured": false,
      "description": "Formula Drift Round 3. NEW venue for 2026!"
    },
    {
      "name": "Formula Drift Stafford CT 2026",
      "event_type": "track-day",
      "city": "Stafford Springs",
      "state": "CT",
      "start_date": "2026-06-18",
      "end_date": "2026-06-20",
      "venue_name": "Stafford Motor Speedway",
      "address": "55 West St",
      "zip": "06076",
      "latitude": 41.9621,
      "longitude": -72.3017,
      "source_url": "https://www.formulad.com/",
      "cost_text": "$50-150",
      "is_free": false,
      "scope": "national",
      "featured": true,
      "description": "Formula Drift Round 4. NEW venue for 2026 in New England!"
    },
    {
      "name": "Formula Drift Indianapolis 2026",
      "event_type": "track-day",
      "city": "Indianapolis",
      "state": "IN",
      "start_date": "2026-07-30",
      "end_date": "2026-08-01",
      "venue_name": "Indianapolis Raceway Park",
      "address": "10267 E US Hwy 136",
      "zip": "46234",
      "latitude": 39.7900,
      "longitude": -86.3419,
      "source_url": "https://www.formulad.com/",
      "cost_text": "$50-150",
      "is_free": false,
      "scope": "national",
      "featured": true,
      "description": "Formula Drift Round 5. NEW venue at Indianapolis Raceway Park!"
    },
    {
      "name": "Formula Drift Seattle 2026",
      "event_type": "track-day",
      "city": "Monroe",
      "state": "WA",
      "start_date": "2026-08-21",
      "end_date": "2026-08-22",
      "venue_name": "Evergreen Speedway",
      "address": "14405 179th Ave SE",
      "zip": "98272",
      "latitude": 47.8500,
      "longitude": -121.9861,
      "source_url": "https://www.formulad.com/",
      "cost_text": "$50-150",
      "is_free": false,
      "scope": "national",
      "featured": false,
      "description": "Formula Drift Round 6 at Evergreen Speedway."
    },
    {
      "name": "Formula Drift Las Vegas 2026",
      "event_type": "track-day",
      "city": "Las Vegas",
      "state": "NV",
      "start_date": "2026-09-24",
      "end_date": "2026-09-26",
      "venue_name": "The Bullring at LVMS",
      "address": "7000 Las Vegas Blvd N",
      "zip": "89115",
      "latitude": 36.2720,
      "longitude": -115.0103,
      "source_url": "https://www.formulad.com/",
      "cost_text": "$50-150",
      "is_free": false,
      "scope": "national",
      "featured": true,
      "description": "Formula Drift Round 7. NEW venue at The Bullring! PROSPEC Finals."
    },
    {
      "name": "Formula Drift Irwindale Finals 2026",
      "event_type": "track-day",
      "city": "Long Beach",
      "state": "CA",
      "start_date": "2026-10-23",
      "end_date": "2026-10-24",
      "venue_name": "Long Beach Shoreline",
      "address": "300 E Ocean Blvd",
      "zip": "90802",
      "latitude": 33.7650,
      "longitude": -118.1892,
      "source_url": "https://www.formulad.com/",
      "cost_text": "$75-200",
      "is_free": false,
      "scope": "national",
      "featured": true,
      "description": "Formula Drift Round 8 - PRO Championship Finale! Title Fight."
    },
    {
      "name": "SCCA ProSolo South Texas 2026",
      "event_type": "autocross",
      "city": "Beeville",
      "state": "TX",
      "start_date": "2026-03-06",
      "end_date": "2026-03-08",
      "venue_name": "NAS Chase Field",
      "address": "Naval Air Station",
      "zip": "78102",
      "latitude": 28.3617,
      "longitude": -97.6617,
      "source_url": "https://www.scca.com/",
      "cost_text": "$150-250",
      "is_free": false,
      "scope": "national",
      "featured": false,
      "description": "SCCA ProSolo Championship Series season opener."
    },
    {
      "name": "SCCA ProSolo Las Vegas 1 2026",
      "event_type": "autocross",
      "city": "Las Vegas",
      "state": "NV",
      "start_date": "2026-03-20",
      "end_date": "2026-03-22",
      "venue_name": "Las Vegas Motor Speedway",
      "address": "7000 Las Vegas Blvd N",
      "zip": "89115",
      "latitude": 36.2720,
      "longitude": -115.0103,
      "source_url": "https://www.scca.com/",
      "cost_text": "$150-250",
      "is_free": false,
      "scope": "national",
      "featured": false,
      "description": "SCCA ProSolo at Las Vegas Motor Speedway."
    },
    {
      "name": "SCCA ProSolo Las Vegas 2 2026",
      "event_type": "autocross",
      "city": "Las Vegas",
      "state": "NV",
      "start_date": "2026-03-27",
      "end_date": "2026-03-29",
      "venue_name": "Las Vegas Motor Speedway",
      "address": "7000 Las Vegas Blvd N",
      "zip": "89115",
      "latitude": 36.2720,
      "longitude": -115.0103,
      "source_url": "https://www.scca.com/",
      "cost_text": "$150-250",
      "is_free": false,
      "scope": "national",
      "featured": false,
      "description": "SCCA ProSolo back-to-back Vegas weekend."
    },
    {
      "name": "SCCA ProSolo Atlanta 2026",
      "event_type": "autocross",
      "city": "Hampton",
      "state": "GA",
      "start_date": "2026-04-17",
      "end_date": "2026-04-19",
      "venue_name": "Atlanta Motor Speedway",
      "address": "1500 Tara Pl",
      "zip": "30228",
      "latitude": 33.3867,
      "longitude": -84.3167,
      "source_url": "https://www.scca.com/",
      "cost_text": "$150-250",
      "is_free": false,
      "scope": "national",
      "featured": false,
      "description": "SCCA ProSolo at Atlanta Motor Speedway."
    },
    {
      "name": "SCCA ProSolo Washington DC 2026",
      "event_type": "autocross",
      "city": "Landover",
      "state": "MD",
      "start_date": "2026-05-15",
      "end_date": "2026-05-17",
      "venue_name": "Northwest Stadium",
      "address": "1600 FedEx Way",
      "zip": "20785",
      "latitude": 38.9078,
      "longitude": -76.8644,
      "source_url": "https://www.scca.com/",
      "cost_text": "$150-250",
      "is_free": false,
      "scope": "national",
      "featured": false,
      "description": "SCCA ProSolo near Washington DC."
    },
    {
      "name": "SCCA ProSolo Lincoln 1 2026",
      "event_type": "autocross",
      "city": "Lincoln",
      "state": "NE",
      "start_date": "2026-05-21",
      "end_date": "2026-05-23",
      "venue_name": "Lincoln Air Park",
      "address": "Lincoln Air Park",
      "zip": "68524",
      "latitude": 40.8508,
      "longitude": -96.7586,
      "source_url": "https://www.scca.com/",
      "cost_text": "$150-250",
      "is_free": false,
      "scope": "national",
      "featured": false,
      "description": "SCCA ProSolo at Lincoln Air Park."
    },
    {
      "name": "SCCA ProSolo Bristol 2026",
      "event_type": "autocross",
      "city": "Bristol",
      "state": "TN",
      "start_date": "2026-07-01",
      "end_date": "2026-07-03",
      "venue_name": "Bristol Motor Speedway",
      "address": "151 Speedway Blvd",
      "zip": "37620",
      "latitude": 36.5160,
      "longitude": -82.2569,
      "source_url": "https://www.scca.com/",
      "cost_text": "$150-250",
      "is_free": false,
      "scope": "national",
      "featured": false,
      "description": "SCCA ProSolo July 4th weekend at Bristol."
    },
    {
      "name": "SCCA Solo National Championships 2026",
      "event_type": "autocross",
      "city": "Lincoln",
      "state": "NE",
      "start_date": "2026-09-07",
      "end_date": "2026-09-11",
      "venue_name": "Lincoln Air Park",
      "address": "Lincoln Air Park",
      "zip": "68524",
      "latitude": 40.8508,
      "longitude": -96.7586,
      "source_url": "https://www.scca.com/",
      "cost_text": "$200-350",
      "is_free": false,
      "scope": "national",
      "featured": true,
      "description": "SCCA Solo National Championships. The Super Bowl of autocross."
    },
    {
      "name": "PCA Zone 7 Crab 39 Weekend 2026",
      "event_type": "club-meetup",
      "city": "Wheatland",
      "state": "CA",
      "start_date": "2026-04-17",
      "end_date": "2026-04-19",
      "venue_name": "Hard Rock Casino Sacramento",
      "address": "3317 Forty Mile Rd",
      "zip": "95692",
      "latitude": 38.9935,
      "longitude": -121.4074,
      "source_url": "https://zone7.pca.org/",
      "cost_text": "$100-300",
      "is_free": false,
      "scope": "regional",
      "featured": false,
      "description": "PCA Sacramento Valley Region Crab 39 weekend: crab feed, rally, autocross, concours, tour.",
      "brand_affinity": "Porsche"
    },
    {
      "name": "PCA Escape 2026",
      "event_type": "cruise",
      "city": "Penticton",
      "state": "BC",
      "start_date": "2026-09-10",
      "end_date": "2026-09-13",
      "venue_name": "Penticton Lakeside Resort",
      "address": "21 Lakeshore Dr W",
      "zip": "V2A 7M5",
      "latitude": 49.4991,
      "longitude": -119.5937,
      "source_url": "https://www.pca.org/",
      "cost_text": "$300-600",
      "is_free": false,
      "scope": "national",
      "featured": false,
      "description": "PCA Escape - scenic drives, winery tours, Show & Shine, Area 27 track.",
      "brand_affinity": "Porsche"
    },
    {
      "name": "Concorso Italiano 2026",
      "event_type": "car-show",
      "city": "Seaside",
      "state": "CA",
      "start_date": "2026-08-15",
      "end_date": "2026-08-15",
      "venue_name": "Bayonet Black Horse Golf Course",
      "address": "1 McClure Way",
      "zip": "93955",
      "latitude": 36.6195,
      "longitude": -121.8275,
      "source_url": "https://www.concorso.com/",
      "cost_text": "$250-550",
      "is_free": false,
      "scope": "national",
      "featured": true,
      "description": "41st annual Italian car celebration during Monterey Car Week. Ferrari, Lamborghini, Alfa Romeo, Maserati."
    },
    {
      "name": "All British Field Meet Portland 2026",
      "event_type": "car-show",
      "city": "Portland",
      "state": "OR",
      "start_date": "2026-09-04",
      "end_date": "2026-09-06",
      "venue_name": "Portland International Raceway",
      "address": "1940 N Victory Blvd",
      "zip": "97217",
      "latitude": 45.5939,
      "longitude": -122.6894,
      "source_url": "https://abfm-pdx.com/",
      "cost_text": "$20-40",
      "is_free": false,
      "scope": "regional",
      "featured": false,
      "description": "47th annual. Largest 3-day all-British car event in Americas. 800+ vehicles, vintage racing, swap meet."
    },
    {
      "name": "All British & European Car Day Dallas 2026",
      "event_type": "car-show",
      "city": "Dallas",
      "state": "TX",
      "start_date": "2026-05-03",
      "end_date": "2026-05-03",
      "venue_name": "White Rock Lake Park",
      "address": "8300 E Lawther Dr",
      "zip": "75218",
      "latitude": 32.8350,
      "longitude": -96.7225,
      "source_url": "https://allbritishcarday.com/",
      "cost_text": "Free",
      "is_free": true,
      "scope": "regional",
      "featured": false,
      "description": "Annual British and European car exposition with popular vote awards."
    },
    {
      "name": "Petersen British Cruise-In 2026",
      "event_type": "car-show",
      "city": "Los Angeles",
      "state": "CA",
      "start_date": "2026-01-25",
      "end_date": "2026-01-25",
      "venue_name": "Petersen Automotive Museum",
      "address": "6060 Wilshire Blvd",
      "zip": "90036",
      "latitude": 34.0622,
      "longitude": -118.3614,
      "source_url": "https://www.petersen.org/",
      "cost_text": "$20-40",
      "is_free": false,
      "scope": "regional",
      "featured": false,
      "description": "England Calling: Distinguished British Cruise-In at Petersen Museum."
    },
    {
      "name": "British Motorcar Gathering 2026",
      "event_type": "car-show",
      "city": "Hellertown",
      "state": "PA",
      "start_date": "2026-06-14",
      "end_date": "2026-06-14",
      "venue_name": "Alfred J. Fritchman Reservoir Park",
      "address": "Reservoir Park",
      "zip": "18055",
      "latitude": 40.5806,
      "longitude": -75.3344,
      "source_url": "https://www.keystonebritish.com/",
      "cost_text": "$15-25",
      "is_free": false,
      "scope": "regional",
      "featured": false,
      "description": "Keystone British Car Club annual gathering. British cars and motorcycles."
    },
    {
      "name": "AACA Grand Nationals Las Vegas 2026",
      "event_type": "car-show",
      "city": "Las Vegas",
      "state": "NV",
      "start_date": "2026-04-23",
      "end_date": "2026-04-25",
      "venue_name": "Las Vegas",
      "address": "Las Vegas, NV",
      "zip": "89109",
      "latitude": 36.1699,
      "longitude": -115.1398,
      "source_url": "https://aaca.org/",
      "cost_text": "$25-50",
      "is_free": false,
      "scope": "national",
      "featured": false,
      "description": "AACA Annual Grand Nationals / Western Spring Nationals. Antique automobiles."
    },
    {
      "name": "AACA Grand Nationals Allentown 2026",
      "event_type": "car-show",
      "city": "Allentown",
      "state": "PA",
      "start_date": "2026-08-19",
      "end_date": "2026-08-22",
      "venue_name": "Allentown Fairgrounds",
      "address": "302 N 17th St",
      "zip": "18104",
      "latitude": 40.6084,
      "longitude": -75.4902,
      "source_url": "https://aaca.org/",
      "cost_text": "$25-50",
      "is_free": false,
      "scope": "national",
      "featured": true,
      "description": "AACA Annual Grand Nationals / Zenith Awards. Premier antique auto show."
    },
    {
      "name": "Mustang Week Texas 2026",
      "event_type": "car-show",
      "city": "Galveston",
      "state": "TX",
      "start_date": "2026-04-14",
      "end_date": "2026-04-18",
      "venue_name": "Galveston Island",
      "address": "Galveston, TX",
      "zip": "77550",
      "latitude": 29.3013,
      "longitude": -94.7977,
      "source_url": "https://mustangweek.com/",
      "cost_text": "$50-150",
      "is_free": false,
      "scope": "regional",
      "featured": false,
      "description": "Mustang Week Texas. Shows, competitions, beach activities.",
      "brand_affinity": "Ford"
    }
  ]
}
