{
  "description": "Major 2026 events that were MISSING from our database - all verified with official sources",
  "verified_date": "2024-12-17",
  "events": [
    {
      "name": "New York International Auto Show 2026",
      "event_type": "industry",
      "city": "New York",
      "state": "NY",
      "start_date": "2026-04-03",
      "end_date": "2026-04-12",
      "venue_name": "Jacob K. Javits Convention Center",
      "address": "429 11th Ave",
      "zip": "10001",
      "latitude": 40.7575,
      "longitude": -74.0025,
      "source_url": "https://www.autoshowny.com/",
      "cost_text": "$20-35",
      "is_free": false,
      "scope": "national",
      "featured": true,
      "description": "America's oldest and most attended auto show. Major vehicle debuts and automotive innovations.",
      "verified": true
    },
    {
      "name": "Woodward Dream Cruise 2026",
      "event_type": "cruise",
      "city": "Detroit",
      "state": "MI",
      "start_date": "2026-08-15",
      "end_date": "2026-08-15",
      "venue_name": "Woodward Avenue",
      "address": "Woodward Avenue, Ferndale to Pontiac",
      "zip": "48220",
      "latitude": 42.4595,
      "longitude": -83.1346,
      "source_url": "https://www.woodwarddreamcruise.com/",
      "cost_text": "Free",
      "is_free": true,
      "scope": "national",
      "featured": true,
      "description": "World's largest one-day automotive event. 1.5 million visitors, 40,000+ classic cars along 16-mile route.",
      "verified": true
    },
    {
      "name": "Hot August Nights 2026",
      "event_type": "cruise",
      "city": "Reno",
      "state": "NV",
      "start_date": "2026-07-31",
      "end_date": "2026-08-09",
      "venue_name": "Reno & Sparks, Nevada",
      "address": "Downtown Reno",
      "zip": "89501",
      "latitude": 39.5296,
      "longitude": -119.8138,
      "source_url": "https://hotaugustnights.net/",
      "cost_text": "$155-260 registration",
      "is_free": false,
      "scope": "national",
      "featured": true,
      "description": "40th Anniversary celebration. 10-day classic car festival with 6,000 vehicles, 500,000 attendees. Free concerts, Show-n-Shines, drag races, auctions.",
      "verified": true
    },
    {
      "name": "HOT ROD Power Tour 2026",
      "event_type": "cruise",
      "city": "Joliet",
      "state": "IL",
      "start_date": "2026-06-08",
      "end_date": "2026-06-12",
      "venue_name": "Route 66 - Multiple Cities",
      "address": "Route 66 Raceway to Tulsa Raceway Park",
      "zip": "60433",
      "latitude": 41.5253,
      "longitude": -88.0817,
      "source_url": "https://www.hotrod.com/events/power-tour/",
      "cost_text": "$100-500",
      "is_free": false,
      "scope": "national",
      "featured": true,
      "description": "Route 66 100th Anniversary celebration. 5-day tour from IL to OK: Joliet → Rantoul → St. Louis → Springfield MO → Tulsa.",
      "verified": true
    },
    {
      "name": "Back to the 50's Weekend 2026",
      "event_type": "car-show",
      "city": "St. Paul",
      "state": "MN",
      "start_date": "2026-06-19",
      "end_date": "2026-06-21",
      "venue_name": "Minnesota State Fairgrounds",
      "address": "1265 Snelling Ave N",
      "zip": "55108",
      "latitude": 44.9813,
      "longitude": -93.1682,
      "source_url": "https://www.msra.com/back-to-the-50s/",
      "cost_text": "$20-30",
      "is_free": false,
      "scope": "national",
      "featured": true,
      "description": "Over 12,000 classic hot rods and customs. One of the largest nostalgia car shows in America.",
      "verified": true
    },
    {
      "name": "NSRA Street Rod Nationals 2026",
      "event_type": "car-show",
      "city": "Louisville",
      "state": "KY",
      "start_date": "2026-08-06",
      "end_date": "2026-08-09",
      "venue_name": "Kentucky Exposition Center",
      "address": "937 Phillips Lane",
      "zip": "40209",
      "latitude": 38.1943,
      "longitude": -85.7436,
      "source_url": "https://nsra-usa.com/",
      "cost_text": "$40-105",
      "is_free": false,
      "scope": "national",
      "featured": true,
      "description": "57th Annual NSRA Street Rod Nationals. Premier street rod event. Vehicles 30+ years old. Swap meet, Builders Showcase, live entertainment.",
      "verified": true
    },
    {
      "name": "Holley LS Fest East 2026",
      "event_type": "car-show",
      "city": "Bowling Green",
      "state": "KY",
      "start_date": "2026-09-04",
      "end_date": "2026-09-06",
      "venue_name": "Beech Bend Raceway Park",
      "address": "798 Beech Bend Rd",
      "zip": "42101",
      "latitude": 36.9592,
      "longitude": -86.4253,
      "source_url": "https://www.holley.com/event/",
      "cost_text": "$50-150",
      "is_free": false,
      "scope": "national",
      "featured": true,
      "description": "Celebration of LS-powered vehicles. Drag racing, autocross, car show, manufacturers midway.",
      "verified": true
    },
    {
      "name": "Holley LS Fest West 2026",
      "event_type": "car-show",
      "city": "Las Vegas",
      "state": "NV",
      "start_date": "2026-04-24",
      "end_date": "2026-04-26",
      "venue_name": "Las Vegas Motor Speedway",
      "address": "7000 Las Vegas Blvd N",
      "zip": "89115",
      "latitude": 36.2727,
      "longitude": -115.0100,
      "source_url": "https://www.holley.com/event/",
      "cost_text": "$50-150",
      "is_free": false,
      "scope": "national",
      "featured": true,
      "description": "West coast celebration of LS-powered vehicles at Las Vegas Motor Speedway.",
      "verified": true
    },
    {
      "name": "Cruisin' Ocean City 2026",
      "event_type": "cruise",
      "city": "Ocean City",
      "state": "MD",
      "start_date": "2026-04-30",
      "end_date": "2026-05-03",
      "venue_name": "Ocean City Inlet Lot & Convention Center",
      "address": "Inlet Parking Lot",
      "zip": "21842",
      "latitude": 38.3272,
      "longitude": -75.0834,
      "source_url": "https://specialeventpro.com/cruisin-ocean-city",
      "cost_text": "$25-50",
      "is_free": false,
      "scope": "regional",
      "featured": true,
      "description": "3,000+ custom hot rods and street machines. Spring beach car show tradition.",
      "verified": true
    },
    {
      "name": "Endless Summer Cruisin' 2026",
      "event_type": "cruise",
      "city": "Ocean City",
      "state": "MD",
      "start_date": "2026-10-08",
      "end_date": "2026-10-11",
      "venue_name": "Ocean City Boardwalk & Convention Center",
      "address": "Beachside Inlet Parking Area",
      "zip": "21842",
      "latitude": 38.3272,
      "longitude": -75.0834,
      "source_url": "https://www.specialeventsponsorships.com/endlesssummercruisin.htm",
      "cost_text": "$25-50",
      "is_free": false,
      "scope": "regional",
      "featured": true,
      "description": "4,000+ street rods, hot rods, and pro street cars. Fall beach car show tradition.",
      "verified": true
    },
    {
      "name": "SCCA National Championship Runoffs 2026",
      "event_type": "track-day",
      "city": "Plymouth",
      "state": "WI",
      "start_date": "2026-09-28",
      "end_date": "2026-10-04",
      "venue_name": "Road America",
      "address": "N7390 State Road 67",
      "zip": "53073",
      "latitude": 43.7973,
      "longitude": -87.9899,
      "source_url": "https://www.scca.com/pages/scca-runoffs",
      "cost_text": "$50-200",
      "is_free": false,
      "scope": "national",
      "featured": true,
      "description": "SCCA National Championship Runoffs at Road America. 18 run groups including Prototype 2 and Formula 600. Hagerty Race Days Oct 3-4.",
      "verified": true
    },
    {
      "name": "NASA Championships 2026",
      "event_type": "track-day",
      "city": "Sebring",
      "state": "FL",
      "start_date": "2026-09-24",
      "end_date": "2026-09-27",
      "venue_name": "Sebring International Raceway",
      "address": "113 Midway Dr",
      "zip": "33870",
      "latitude": 27.4545,
      "longitude": -81.3484,
      "source_url": "https://nasachampionships.com/",
      "cost_text": "$200-500",
      "is_free": false,
      "scope": "national",
      "featured": true,
      "description": "20th Annual NASA Championships. Time Trial and Sprint Racing formats at legendary Sebring.",
      "verified": true
    },
    {
      "name": "Tuner Galleria Chicago 2026",
      "event_type": "car-show",
      "city": "Rosemont",
      "state": "IL",
      "start_date": "2026-03-07",
      "end_date": "2026-03-07",
      "venue_name": "Donald E. Stephens Convention Center",
      "address": "5555 N River Rd",
      "zip": "60018",
      "latitude": 41.9806,
      "longitude": -87.8668,
      "source_url": "https://tunergalleria.com/",
      "cost_text": "$20-40",
      "is_free": false,
      "scope": "regional",
      "featured": false,
      "description": "17th year. Premier euro/import/modern muscle event alongside classics and hot rods. 12pm-10pm.",
      "verified": true
    },
    {
      "name": "Tuner Evolution Harrisburg 2026",
      "event_type": "car-show",
      "city": "Harrisburg",
      "state": "PA",
      "start_date": "2026-05-03",
      "end_date": "2026-05-03",
      "venue_name": "PA Farm Show Complex",
      "address": "2300 N Cameron St",
      "zip": "17110",
      "latitude": 40.2810,
      "longitude": -76.8659,
      "source_url": "https://tuner-evolution.com/event/harrisburg/",
      "cost_text": "$25-65",
      "is_free": false,
      "scope": "regional",
      "featured": false,
      "description": "Large indoor import/tuner show. Draws enthusiasts from NYC, Baltimore, Philadelphia, Pittsburgh.",
      "verified": true
    },
    {
      "name": "Tuner Evolution Virginia Beach 2026",
      "event_type": "car-show",
      "city": "Virginia Beach",
      "state": "VA",
      "start_date": "2026-05-30",
      "end_date": "2026-05-30",
      "venue_name": "Virginia Beach Convention Center",
      "address": "1000 19th St",
      "zip": "23451",
      "latitude": 36.8516,
      "longitude": -75.9779,
      "source_url": "https://tuner-evolution.com/event/virginiabeach/",
      "cost_text": "$20-80",
      "is_free": false,
      "scope": "regional",
      "featured": false,
      "description": "One of the largest Tuner Evolution events. All-indoor show field in popular beach town.",
      "verified": true
    },
    {
      "name": "Tuner Evolution Chicago 2026",
      "event_type": "car-show",
      "city": "Schaumburg",
      "state": "IL",
      "start_date": "2026-08-30",
      "end_date": "2026-08-30",
      "venue_name": "Schaumburg Convention Center",
      "address": "1551 N Thoreau Dr",
      "zip": "60173",
      "latitude": 42.0334,
      "longitude": -88.0834,
      "source_url": "https://tuner-evolution.com/event/chicago/",
      "cost_text": "$25-80",
      "is_free": false,
      "scope": "regional",
      "featured": false,
      "description": "Growing annual import/tuner event in Chicago area.",
      "verified": true
    },
    {
      "name": "Wekfest San Jose 2026",
      "event_type": "car-show",
      "city": "San Jose",
      "state": "CA",
      "start_date": "2026-07-12",
      "end_date": "2026-07-12",
      "venue_name": "San Jose Convention Center",
      "address": "150 W San Carlos St",
      "zip": "95113",
      "latitude": 37.3288,
      "longitude": -121.8893,
      "source_url": "https://www.wekfest-usa.com/",
      "cost_text": "$25-50",
      "is_free": false,
      "scope": "regional",
      "featured": false,
      "description": "Premier import/tuner car show featuring top builds from across the country.",
      "verified": true
    },
    {
      "name": "Import Alliance Atlanta 2026",
      "event_type": "car-show",
      "city": "Atlanta",
      "state": "GA",
      "start_date": "2026-04-04",
      "end_date": "2026-04-05",
      "venue_name": "Atlanta Motor Speedway",
      "address": "1500 Tara Pl",
      "zip": "30253",
      "latitude": 33.3869,
      "longitude": -84.3169,
      "source_url": "https://www.importalliance.org/",
      "cost_text": "$30-100",
      "is_free": false,
      "scope": "regional",
      "featured": false,
      "description": "Spring import meet at Atlanta Motor Speedway. One of the largest import gatherings in the Southeast.",
      "verified": true
    },
    {
      "name": "Eibach Honda Meet 2026",
      "event_type": "car-show",
      "city": "Corona",
      "state": "CA",
      "start_date": "2026-05-16",
      "end_date": "2026-05-16",
      "venue_name": "Eibach Springs HQ",
      "address": "264 Mariah Cir",
      "zip": "92879",
      "latitude": 33.8753,
      "longitude": -117.5664,
      "source_url": "https://eibach.com/honda-meet/",
      "cost_text": "$20-40",
      "is_free": false,
      "scope": "regional",
      "featured": false,
      "description": "Annual Honda-only meet at Eibach HQ. One of the largest Honda gatherings in SoCal.",
      "brand_affinity": "Honda",
      "verified": true
    },
    {
      "name": "Broad Arrow Amelia Island 2026",
      "event_type": "auction",
      "city": "Amelia Island",
      "state": "FL",
      "start_date": "2026-03-05",
      "end_date": "2026-03-07",
      "venue_name": "The Ritz-Carlton, Amelia Island",
      "address": "4750 Amelia Island Pkwy",
      "zip": "32034",
      "latitude": 30.5766,
      "longitude": -81.4423,
      "source_url": "https://www.broadarrowauctions.com/",
      "cost_text": "$60-300",
      "is_free": false,
      "scope": "national",
      "featured": true,
      "description": "Broad Arrow Group auction during Amelia Island Concours week. 140+ exceptional collector cars.",
      "verified": true
    }
  ]
}

