{
  "description": "Specialty events expansion 2026 - European, Radwood, regional shows",
  "verified_date": "2024-12-17",
  "events": [
    {
      "name": "Euro Tripper 13 2026",
      "event_type": "car-show",
      "city": "Fort Myers",
      "state": "FL",
      "start_date": "2026-02-06",
      "end_date": "2026-02-07",
      "venue_name": "Fort Myers Area",
      "address": "Fort Myers, FL",
      "zip": "33901",
      "latitude": 26.6406,
      "longitude": -81.8723,
      "source_url": "https://eurotripper.co/",
      "cost_text": "$30-60",
      "is_free": false,
      "scope": "regional",
      "featured": false,
      "description": "13th annual Euro Tripper. Premier European car gathering in Florida."
    },
    {
      "name": "Euro Drag Wars 2026",
      "event_type": "track-day",
      "city": "Bithlo",
      "state": "FL",
      "start_date": "2026-01-17",
      "end_date": "2026-01-18",
      "venue_name": "Orlando Speed World Dragway",
      "address": "19164 E Colonial Dr",
      "zip": "32820",
      "latitude": 28.5534,
      "longitude": -81.0692,
      "source_url": "https://www.oswd.com/",
      "cost_text": "$30-75",
      "is_free": false,
      "scope": "regional",
      "featured": false,
      "description": "European and exotic vehicle roll racing, drag racing, and car show."
    },
    {
      "name": "Tuner Galleria Chicago 2026",
      "event_type": "car-show",
      "city": "Rosemont",
      "state": "IL",
      "start_date": "2026-03-07",
      "end_date": "2026-03-07",
      "venue_name": "Donald E. Stephens Convention Center",
      "address": "5555 N River Rd",
      "zip": "60018",
      "latitude": 41.9842,
      "longitude": -87.8609,
      "source_url": "https://tunergalleria.com/",
      "cost_text": "$25-50",
      "is_free": false,
      "scope": "regional",
      "featured": false,
      "description": "Indoor tuner and import car show. Showcase of modified European and Japanese vehicles."
    },
    {
      "name": "EUROBUILT Spring Show 2026",
      "event_type": "car-show",
      "city": "Greenfield",
      "state": "MA",
      "start_date": "2026-05-03",
      "end_date": "2026-05-03",
      "venue_name": "Franklin County Fairgrounds",
      "address": "89 Wisdom Way",
      "zip": "01301",
      "latitude": 42.5876,
      "longitude": -72.5973,
      "source_url": "https://eurobuilt.org/",
      "cost_text": "$15-30",
      "is_free": false,
      "scope": "regional",
      "featured": false,
      "description": "Euro-only car show in Western Massachusetts. VW, Audi, BMW, Mercedes, Porsche."
    },
    {
      "name": "Eurofest Maggie Valley 2026",
      "event_type": "car-show",
      "city": "Maggie Valley",
      "state": "NC",
      "start_date": "2026-08-13",
      "end_date": "2026-08-15",
      "venue_name": "Maggie Valley Festival Grounds",
      "address": "3374 Soco Rd",
      "zip": "28751",
      "latitude": 35.5179,
      "longitude": -83.0968,
      "source_url": "https://southeasteuromotorsports.com/",
      "cost_text": "$25-50",
      "is_free": false,
      "scope": "regional",
      "featured": false,
      "description": "European car festival in the mountains. Saturday main show with vendors and food."
    },
    {
      "name": "RADwood Heritage Invitational 2026",
      "event_type": "car-show",
      "city": "Concord",
      "state": "NC",
      "start_date": "2026-04-09",
      "end_date": "2026-04-11",
      "venue_name": "Charlotte Motor Speedway",
      "address": "5555 Concord Parkway S",
      "zip": "28027",
      "latitude": 35.3506,
      "longitude": -80.6828,
      "source_url": "https://radwood.com/",
      "cost_text": "$30-75",
      "is_free": false,
      "scope": "national",
      "featured": true,
      "description": "RADwood at Heritage Invitational. 80s and 90s cars, stock cars, movie vehicles."
    },
    {
      "name": "Exotics on Ice Boca Raton 2026",
      "event_type": "car-show",
      "city": "Boca Raton",
      "state": "FL",
      "start_date": "2026-01-06",
      "end_date": "2026-01-06",
      "venue_name": "The Wick Theatre",
      "address": "7901 N Federal Hwy",
      "zip": "33487",
      "latitude": 26.4083,
      "longitude": -80.0731,
      "source_url": "https://supercarsonice.com/",
      "cost_text": "$50-150",
      "is_free": false,
      "scope": "regional",
      "featured": false,
      "description": "Exotic car celebration on ice. Supercars and hypercars on display."
    },
    {
      "name": "Caffeine and Octane Jacksonville 2026",
      "event_type": "cars-and-coffee",
      "city": "Jacksonville",
      "state": "FL",
      "start_date": "2026-01-10",
      "end_date": "2026-01-10",
      "venue_name": "The Avenues",
      "address": "10300 Southside Blvd",
      "zip": "32256",
      "latitude": 30.2295,
      "longitude": -81.5489,
      "source_url": "https://caffeineandoctane.com/",
      "cost_text": "Free",
      "is_free": true,
      "scope": "regional",
      "featured": false,
      "description": "Monthly Caffeine and Octane Jacksonville. Second Saturday of each month."
    },
    {
      "name": "Exotics on Broadway Monterey 2026",
      "event_type": "car-show",
      "city": "Seaside",
      "state": "CA",
      "start_date": "2026-08-16",
      "end_date": "2026-08-16",
      "venue_name": "Broadway Avenue",
      "address": "Broadway Ave",
      "zip": "93955",
      "latitude": 36.6195,
      "longitude": -121.8275,
      "source_url": "https://unfukwithable.com/",
      "cost_text": "Free",
      "is_free": true,
      "scope": "regional",
      "featured": true,
      "description": "Part of Monterey Car Week. Exclusive hypercars and supercars on Broadway."
    },
    {
      "name": "COTA SpeedTour Cars & Caffeine 2026",
      "event_type": "cars-and-coffee",
      "city": "Austin",
      "state": "TX",
      "start_date": "2026-11-07",
      "end_date": "2026-11-07",
      "venue_name": "Circuit of The Americas",
      "address": "9201 Circuit of the Americas Blvd",
      "zip": "78617",
      "latitude": 30.1346,
      "longitude": -97.6358,
      "source_url": "https://www.motorsportreg.com/",
      "cost_text": "Free-$25",
      "is_free": false,
      "scope": "regional",
      "featured": false,
      "description": "Hagerty Cars & Caffeine at COTA SpeedTour. Track event with car show."
    },
    {
      "name": "Caffeine and Classics Fort Worth 2026",
      "event_type": "cars-and-coffee",
      "city": "Fort Worth",
      "state": "TX",
      "start_date": "2026-01-24",
      "end_date": "2026-01-24",
      "venue_name": "Streetside Classics",
      "address": "5400 Sandshell Dr",
      "zip": "76137",
      "latitude": 32.8629,
      "longitude": -97.3072,
      "source_url": "https://www.streetsideclassics.com/",
      "cost_text": "Free",
      "is_free": true,
      "scope": "regional",
      "featured": false,
      "description": "Monthly Caffeine and Classics at Streetside Classics. Fourth Saturday."
    },
    {
      "name": "American Muscle Mustang Show 2026",
      "event_type": "car-show",
      "city": "Reading",
      "state": "PA",
      "start_date": "2026-04-26",
      "end_date": "2026-04-26",
      "venue_name": "Maple Grove Raceway",
      "address": "30 Stauffer Park Ln",
      "zip": "19520",
      "latitude": 40.2728,
      "longitude": -75.8411,
      "source_url": "https://www.americanmuscle.com/",
      "cost_text": "$25-50",
      "is_free": false,
      "scope": "national",
      "featured": true,
      "description": "AmericanMuscle annual Mustang show. Drag racing, vendor midway, car show.",
      "brand_affinity": "Ford"
    },
    {
      "name": "Bimmerfest West 2026",
      "event_type": "car-show",
      "city": "Pasadena",
      "state": "CA",
      "start_date": "2026-05-16",
      "end_date": "2026-05-16",
      "venue_name": "Rose Bowl",
      "address": "1001 Rose Bowl Dr",
      "zip": "91103",
      "latitude": 34.1613,
      "longitude": -118.1676,
      "source_url": "https://bimmerfest.com/",
      "cost_text": "$25-50",
      "is_free": false,
      "scope": "national",
      "featured": true,
      "description": "World's largest BMW enthusiast gathering. Thousands of BMWs at Rose Bowl.",
      "brand_affinity": "BMW"
    },
    {
      "name": "BMW CCA Club Race - Lightning August 2026",
      "event_type": "track-day",
      "city": "Millville",
      "state": "NJ",
      "start_date": "2026-08-01",
      "end_date": "2026-08-02",
      "venue_name": "NJMP Lightning",
      "address": "8000 Dividing Creek Rd",
      "zip": "08332",
      "latitude": 39.3578,
      "longitude": -75.0784,
      "source_url": "https://bmwccaclubracing.com/",
      "cost_text": "$400-600",
      "is_free": false,
      "scope": "national",
      "featured": false,
      "description": "BMW CCA Club Race at NJMP Lightning. Delaware Valley Chapter.",
      "brand_affinity": "BMW"
    },
    {
      "name": "BMW CCA Club Race - Summit Point July 2026",
      "event_type": "track-day",
      "city": "Summit Point",
      "state": "WV",
      "start_date": "2026-07-11",
      "end_date": "2026-07-12",
      "venue_name": "Summit Point Motorsports Park",
      "address": "201 Motorsport Rd",
      "zip": "25446",
      "latitude": 39.2321,
      "longitude": -77.9668,
      "source_url": "https://bmwccaclubracing.com/",
      "cost_text": "$400-600",
      "is_free": false,
      "scope": "national",
      "featured": false,
      "description": "BMW CCA Club Race at Summit Point. New Jersey Chapter.",
      "brand_affinity": "BMW"
    },
    {
      "name": "Porsche Parade Lake Placid 2026",
      "event_type": "club-meetup",
      "city": "Lake Placid",
      "state": "NY",
      "start_date": "2026-06-14",
      "end_date": "2026-06-20",
      "venue_name": "Lake Placid Conference Center",
      "address": "2608 Main St",
      "zip": "12946",
      "latitude": 44.2795,
      "longitude": -73.9799,
      "source_url": "https://www.pca.org/parade",
      "cost_text": "$500-1000",
      "is_free": false,
      "scope": "national",
      "featured": true,
      "description": "PCA National Parade in Lake Placid. Week-long celebration with concours, rallies, tech sessions.",
      "brand_affinity": "Porsche"
    },
    {
      "name": "PCA Zone 7 Sequoia Autocross 2026",
      "event_type": "autocross",
      "city": "Madera",
      "state": "CA",
      "start_date": "2026-04-11",
      "end_date": "2026-04-11",
      "venue_name": "Madera Airport",
      "address": "Madera Municipal Airport",
      "zip": "93636",
      "latitude": 36.9896,
      "longitude": -120.1124,
      "source_url": "https://zone7.pca.org/",
      "cost_text": "$50-100",
      "is_free": false,
      "scope": "regional",
      "featured": false,
      "description": "PCA Sequoia Region autocross at Madera Airport.",
      "brand_affinity": "Porsche"
    },
    {
      "name": "PCA Zone 7 Golden Gate Autocross July 2026",
      "event_type": "autocross",
      "city": "Salinas",
      "state": "CA",
      "start_date": "2026-07-11",
      "end_date": "2026-07-11",
      "venue_name": "Salinas Municipal Airport",
      "address": "30 Mortensen Ave",
      "zip": "93905",
      "latitude": 36.6628,
      "longitude": -121.6064,
      "source_url": "https://zone7.pca.org/",
      "cost_text": "$50-100",
      "is_free": false,
      "scope": "regional",
      "featured": false,
      "description": "PCA Golden Gate Region autocross at Salinas Airport.",
      "brand_affinity": "Porsche"
    },
    {
      "name": "PCA Zone 7 Crows Landing Autocross 2026",
      "event_type": "autocross",
      "city": "Crows Landing",
      "state": "CA",
      "start_date": "2026-09-12",
      "end_date": "2026-09-12",
      "venue_name": "Crows Landing Airport",
      "address": "Crows Landing Airport",
      "zip": "95313",
      "latitude": 37.3990,
      "longitude": -121.1186,
      "source_url": "https://zone7.pca.org/",
      "cost_text": "$50-100",
      "is_free": false,
      "scope": "regional",
      "featured": false,
      "description": "PCA Golden Gate Region autocross at Crows Landing.",
      "brand_affinity": "Porsche"
    },
    {
      "name": "SCCA Solo National Tour Red Hills 2026",
      "event_type": "autocross",
      "city": "Moultrie",
      "state": "GA",
      "start_date": "2026-03-13",
      "end_date": "2026-03-15",
      "venue_name": "Spence Field",
      "address": "Spence Field",
      "zip": "31768",
      "latitude": 31.1486,
      "longitude": -83.7269,
      "source_url": "https://www.scca.com/",
      "cost_text": "$150-250",
      "is_free": false,
      "scope": "national",
      "featured": false,
      "description": "SCCA Solo National Tour - Red Hills. Season opener."
    },
    {
      "name": "SCCA Solo National Tour Charlotte 2026",
      "event_type": "autocross",
      "city": "Charlotte",
      "state": "NC",
      "start_date": "2026-03-27",
      "end_date": "2026-03-29",
      "venue_name": "zMAX Dragway",
      "address": "6570 Bruton Smith Blvd",
      "zip": "28027",
      "latitude": 35.3490,
      "longitude": -80.6790,
      "source_url": "https://www.scca.com/",
      "cost_text": "$150-250",
      "is_free": false,
      "scope": "national",
      "featured": false,
      "description": "SCCA Solo National Tour at Charlotte zMAX Dragway."
    },
    {
      "name": "SCCA Solo National Tour Finger Lakes 2026",
      "event_type": "autocross",
      "city": "Ovid",
      "state": "NY",
      "start_date": "2026-07-31",
      "end_date": "2026-08-02",
      "venue_name": "Seneca Army Depot",
      "address": "Seneca Army Depot",
      "zip": "14521",
      "latitude": 42.7373,
      "longitude": -76.8226,
      "source_url": "https://www.scca.com/",
      "cost_text": "$150-250",
      "is_free": false,
      "scope": "national",
      "featured": false,
      "description": "SCCA Solo National Tour Finger Lakes at Seneca Army Depot."
    },
    {
      "name": "Corvette National Convention 2026",
      "event_type": "club-meetup",
      "city": "San Antonio",
      "state": "TX",
      "start_date": "2026-06-28",
      "end_date": "2026-07-03",
      "venue_name": "Henry B. Gonzalez Convention Center",
      "address": "900 E Market St",
      "zip": "78205",
      "latitude": 29.4189,
      "longitude": -98.4857,
      "source_url": "https://www.nccorvette.org/",
      "cost_text": "$200-500",
      "is_free": false,
      "scope": "national",
      "featured": true,
      "description": "National Council of Corvette Clubs annual convention. Judged concours.",
      "brand_affinity": "Chevrolet"
    },
    {
      "name": "Shelby American Automobile Club National 2026",
      "event_type": "club-meetup",
      "city": "Las Vegas",
      "state": "NV",
      "start_date": "2026-04-16",
      "end_date": "2026-04-19",
      "venue_name": "Las Vegas Motor Speedway",
      "address": "7000 Las Vegas Blvd N",
      "zip": "89115",
      "latitude": 36.2720,
      "longitude": -115.0103,
      "source_url": "https://www.saac.com/",
      "cost_text": "$100-300",
      "is_free": false,
      "scope": "national",
      "featured": false,
      "description": "SAAC National gathering for Shelby enthusiasts. GT350, GT500, Cobras.",
      "brand_affinity": "Ford"
    },
    {
      "name": "GTO Association of America National 2026",
      "event_type": "club-meetup",
      "city": "Daytona Beach",
      "state": "FL",
      "start_date": "2026-06-17",
      "end_date": "2026-06-20",
      "venue_name": "Daytona Beach",
      "address": "Daytona Beach, FL",
      "zip": "32114",
      "latitude": 29.2108,
      "longitude": -81.0228,
      "source_url": "https://www.gtoaa.org/",
      "cost_text": "$100-250",
      "is_free": false,
      "scope": "national",
      "featured": false,
      "description": "GTO Association annual national meet. All GTOs welcome."
    },
    {
      "name": "Buick GS Nationals 2026",
      "event_type": "car-show",
      "city": "Bowling Green",
      "state": "KY",
      "start_date": "2026-05-21",
      "end_date": "2026-05-23",
      "venue_name": "Beech Bend Raceway",
      "address": "798 Beech Bend Rd",
      "zip": "42101",
      "latitude": 36.9906,
      "longitude": -86.4292,
      "source_url": "https://www.gsnationals.com/",
      "cost_text": "$50-100",
      "is_free": false,
      "scope": "national",
      "featured": false,
      "description": "Annual Buick GS Nationals. Drag racing and car show for Buick muscle.",
      "brand_affinity": "Buick"
    },
    {
      "name": "MOPAR Nationals 2026",
      "event_type": "car-show",
      "city": "Columbus",
      "state": "OH",
      "start_date": "2026-08-13",
      "end_date": "2026-08-16",
      "venue_name": "National Trail Raceway",
      "address": "2650 National Rd SW",
      "zip": "43146",
      "latitude": 39.8667,
      "longitude": -82.6833,
      "source_url": "https://www.moparnationals.com/",
      "cost_text": "$50-100",
      "is_free": false,
      "scope": "national",
      "featured": true,
      "description": "All-Mopar nationals. Drag racing, swap meet, car show for Dodge, Chrysler, Plymouth."
    }
  ]
}
