{
  "description": "Time attack events for 2026 season",
  "source": "Global Time Attack official schedule, research December 2024",
  "updated": "2024-12-17",
  "events": [
    {
      "name": "Global Time Attack Thunderhill 2026",
      "event_type": "time-attack",
      "city": "Willows",
      "state": "CA",
      "start_date": "2026-05-30",
      "end_date": "2026-05-31",
      "venue_name": "Thunderhill Raceway Park",
      "address": "5250 CA-162",
      "zip": "95988",
      "latitude": 39.5391,
      "longitude": -122.3339,
      "source_url": "https://globaltimeattack.com",
      "cost_text": "$300-500",
      "is_free": false,
      "scope": "national",
      "featured": true,
      "description": "GTA round at Thunderhill East Circuit. Professional time attack competition."
    },
    {
      "name": "GTA Speed Summit 2026",
      "event_type": "time-attack",
      "city": "Shelton",
      "state": "WA",
      "start_date": "2026-08-22",
      "end_date": "2026-08-23",
      "venue_name": "The Ridge Motorsports Park",
      "address": "1060 W Eells Hill Rd",
      "zip": "98584",
      "latitude": 47.3128,
      "longitude": -123.0717,
      "source_url": "https://globaltimeattack.com",
      "cost_text": "$300-500",
      "is_free": false,
      "scope": "national",
      "featured": true,
      "description": "Pacific Northwest time attack at The Ridge. Speed Summit event."
    },
    {
      "name": "GTA Finals 2026",
      "event_type": "time-attack",
      "city": "Buttonwillow",
      "state": "CA",
      "start_date": "2026-11-14",
      "end_date": "2026-11-15",
      "venue_name": "Buttonwillow Raceway Park",
      "address": "24551 Lerdo Hwy",
      "zip": "93206",
      "latitude": 35.4042,
      "longitude": -119.4467,
      "source_url": "https://globaltimeattack.com",
      "cost_text": "$300-500",
      "is_free": false,
      "scope": "national",
      "featured": true,
      "description": "GTA Finals on CW13 configuration. Season championship decider."
    },
    {
      "name": "GridLife South 2026",
      "event_type": "time-attack",
      "city": "Williston",
      "state": "FL",
      "start_date": "2026-03-20",
      "end_date": "2026-03-22",
      "venue_name": "Gainesville Raceway",
      "address": "11211 N County Rd 225",
      "zip": "32696",
      "latitude": 29.5653,
      "longitude": -82.4519,
      "source_url": "https://gridlife.co",
      "cost_text": "$200-400",
      "is_free": false,
      "scope": "national",
      "featured": false,
      "description": "GridLife festival combining time attack, drifting, and music."
    },
    {
      "name": "GridLife Midwest 2026",
      "event_type": "time-attack",
      "city": "Lexington",
      "state": "OH",
      "start_date": "2026-06-12",
      "end_date": "2026-06-14",
      "venue_name": "Mid-Ohio Sports Car Course",
      "address": "7721 Steam Corners Rd",
      "zip": "44904",
      "latitude": 40.6772,
      "longitude": -82.6397,
      "source_url": "https://gridlife.co",
      "cost_text": "$200-400",
      "is_free": false,
      "scope": "national",
      "featured": false,
      "description": "GridLife's Midwest festival at iconic Mid-Ohio circuit."
    },
    {
      "name": "GridLife Road Atlanta 2026",
      "event_type": "time-attack",
      "city": "Braselton",
      "state": "GA",
      "start_date": "2026-09-04",
      "end_date": "2026-09-06",
      "venue_name": "Road Atlanta",
      "address": "5300 Winder Hwy",
      "zip": "30517",
      "latitude": 34.1468,
      "longitude": -83.8113,
      "source_url": "https://gridlife.co",
      "cost_text": "$200-400",
      "is_free": false,
      "scope": "national",
      "featured": false,
      "description": "GridLife at Road Atlanta featuring time attack and track days."
    }
  ]
}









