{
  "batch": "Track Days & Racing 2026",
  "events": [
    {
      "name": "Rolex 24 at Daytona 2026",
      "event_type": "track-day",
      "city": "Daytona Beach",
      "state": "FL",
      "venue_name": "Daytona International Speedway",
      "address": "1801 W International Speedway Blvd",
      "zip": "32114",
      "latitude": 29.1852,
      "longitude": -81.0705,
      "start_date": "2026-01-21",
      "end_date": "2026-01-25",
      "source_url": "https://www.imsa.com/weathertech/weathertech-2026-schedule/",
      "cost_text": "$50-200",
      "is_free": false,
      "scope": "national",
      "featured": true,
      "description": "IMSA WeatherTech Championship 24-hour endurance race. Kicks off the racing season."
    },
    {
      "name": "Mobil 1 Twelve Hours of Sebring 2026",
      "event_type": "track-day",
      "city": "Sebring",
      "state": "FL",
      "venue_name": "Sebring International Raceway",
      "address": "113 Midway Dr",
      "zip": "33870",
      "latitude": 27.4545,
      "longitude": -81.3484,
      "start_date": "2026-03-18",
      "end_date": "2026-03-21",
      "source_url": "https://www.imsa.com/weathertech/weathertech-2026-schedule/",
      "cost_text": "$50-250",
      "is_free": false,
      "scope": "national",
      "featured": true,
      "description": "IMSA 12-hour endurance race. America's oldest sports car race."
    },
    {
      "name": "Motul Petit Le Mans 2026",
      "event_type": "track-day",
      "city": "Braselton",
      "state": "GA",
      "venue_name": "Michelin Raceway Road Atlanta",
      "address": "5300 Winder Hwy",
      "zip": "30517",
      "latitude": 34.1468,
      "longitude": -83.8113,
      "start_date": "2026-09-30",
      "end_date": "2026-10-03",
      "source_url": "https://www.imsa.com/weathertech/weathertech-2026-schedule/",
      "cost_text": "$50-200",
      "is_free": false,
      "scope": "national",
      "featured": true,
      "description": "IMSA 10-hour endurance race. Season finale at Road Atlanta."
    },
    {
      "name": "IMSA Road America 6 Hours 2026",
      "event_type": "track-day",
      "city": "Elkhart Lake",
      "state": "WI",
      "venue_name": "Road America",
      "address": "N7390 State Road 67",
      "zip": "53020",
      "latitude": 43.7983,
      "longitude": -87.9892,
      "start_date": "2026-07-30",
      "end_date": "2026-08-02",
      "source_url": "https://www.imsa.com/weathertech/weathertech-2026-schedule/",
      "cost_text": "$50-200",
      "is_free": false,
      "scope": "national",
      "featured": true,
      "description": "New IMSA Michelin Endurance Cup 6-hour race at Road America."
    },
    {
      "name": "NASA Championships 2026",
      "event_type": "track-day",
      "city": "Sebring",
      "state": "FL",
      "venue_name": "Sebring International Raceway",
      "address": "113 Midway Dr",
      "zip": "33870",
      "latitude": 27.4545,
      "longitude": -81.3484,
      "start_date": "2026-09-24",
      "end_date": "2026-09-27",
      "source_url": "https://drivenasa.com/championships/",
      "cost_text": "$300-600",
      "is_free": false,
      "scope": "national",
      "featured": true,
      "description": "NASA National Championships. Culmination of regional racing season."
    },
    {
      "name": "NASA Northeast HPDE Watkins Glen April 2026",
      "event_type": "track-day",
      "city": "Watkins Glen",
      "state": "NY",
      "venue_name": "Watkins Glen International",
      "address": "2790 County Route 16",
      "zip": "14891",
      "latitude": 42.3369,
      "longitude": -76.9275,
      "start_date": "2026-04-24",
      "end_date": "2026-04-26",
      "source_url": "https://nasane.com/schedule/",
      "cost_text": "$400-700",
      "is_free": false,
      "scope": "regional",
      "featured": false,
      "description": "NASA Northeast HPDE and racing at Watkins Glen International."
    },
    {
      "name": "NASA Northeast HPDE Watkins Glen October 2026",
      "event_type": "track-day",
      "city": "Watkins Glen",
      "state": "NY",
      "venue_name": "Watkins Glen International",
      "address": "2790 County Route 16",
      "zip": "14891",
      "latitude": 42.3369,
      "longitude": -76.9275,
      "start_date": "2026-10-09",
      "end_date": "2026-10-11",
      "source_url": "https://nasane.com/schedule/",
      "cost_text": "$400-700",
      "is_free": false,
      "scope": "regional",
      "featured": false,
      "description": "NASA Northeast fall HPDE and racing at Watkins Glen International."
    },
    {
      "name": "NASA NorCal HPDE Sonoma March 2026",
      "event_type": "track-day",
      "city": "Sonoma",
      "state": "CA",
      "venue_name": "Sonoma Raceway",
      "address": "29355 Arnold Dr",
      "zip": "95476",
      "latitude": 38.1611,
      "longitude": -122.4550,
      "start_date": "2026-03-07",
      "end_date": "2026-03-08",
      "source_url": "https://nasanorcal.com/",
      "cost_text": "$400-600",
      "is_free": false,
      "scope": "regional",
      "featured": false,
      "description": "NASA NorCal HPDE at Sonoma Raceway."
    },
    {
      "name": "NASA SoCal HPDE Willow Springs March 2026",
      "event_type": "track-day",
      "city": "Rosamond",
      "state": "CA",
      "venue_name": "Willow Springs International Raceway",
      "address": "3500 75th St W",
      "zip": "93560",
      "latitude": 34.8917,
      "longitude": -118.2542,
      "start_date": "2026-03-21",
      "end_date": "2026-03-22",
      "source_url": "https://nasasocal.com/",
      "cost_text": "$400-600",
      "is_free": false,
      "scope": "regional",
      "featured": false,
      "description": "NASA SoCal HPDE at Willow Springs International Raceway."
    },
    {
      "name": "NASA Great Lakes NCM Bourbon Barrel 2026",
      "event_type": "track-day",
      "city": "Bowling Green",
      "state": "KY",
      "venue_name": "NCM Motorsports Park",
      "address": "505 Sportscar Way",
      "zip": "42101",
      "latitude": 37.0048,
      "longitude": -86.3728,
      "start_date": "2026-03-20",
      "end_date": "2026-03-22",
      "source_url": "https://nasagreatlakes.com/schedule/",
      "cost_text": "$350-550",
      "is_free": false,
      "scope": "regional",
      "featured": false,
      "description": "NASA Great Lakes The Bourbon Barrel Round 1 at NCM Motorsports Park."
    },
    {
      "name": "SCCA Track Day Las Vegas February 2026",
      "event_type": "track-day",
      "city": "Las Vegas",
      "state": "NV",
      "venue_name": "Las Vegas Motor Speedway",
      "address": "7000 Las Vegas Blvd N",
      "zip": "89115",
      "latitude": 36.2717,
      "longitude": -115.0103,
      "start_date": "2026-02-21",
      "end_date": "2026-02-21",
      "source_url": "https://www.tracknightinamerica.com/events",
      "cost_text": "$200-400",
      "is_free": false,
      "scope": "regional",
      "featured": false,
      "description": "SCCA Track Night in America at Las Vegas Motor Speedway."
    },
    {
      "name": "SCCA Track Days Summit Point February 2026",
      "event_type": "track-day",
      "city": "Summit Point",
      "state": "WV",
      "venue_name": "Summit Point Motorsports Park",
      "address": "178 Motorsports Park Circle",
      "zip": "25446",
      "latitude": 39.2078,
      "longitude": -77.9636,
      "start_date": "2026-02-28",
      "end_date": "2026-03-01",
      "source_url": "https://www.wdcr-scca.org/",
      "cost_text": "$200-400",
      "is_free": false,
      "scope": "regional",
      "featured": false,
      "description": "SCCA DC Region Track Days at Summit Point Main Circuit."
    },
    {
      "name": "SCCA Track Days Summit Point April 2026",
      "event_type": "track-day",
      "city": "Summit Point",
      "state": "WV",
      "venue_name": "Summit Point Motorsports Park",
      "address": "178 Motorsports Park Circle",
      "zip": "25446",
      "latitude": 39.2078,
      "longitude": -77.9636,
      "start_date": "2026-04-24",
      "end_date": "2026-04-26",
      "source_url": "https://www.wdcr-scca.org/",
      "cost_text": "$200-400",
      "is_free": false,
      "scope": "regional",
      "featured": false,
      "description": "SCCA DC Region Track Days at Summit Point Main Circuit."
    },
    {
      "name": "Formula Drift Long Beach 2026",
      "event_type": "track-day",
      "city": "Long Beach",
      "state": "CA",
      "venue_name": "Streets of Long Beach",
      "address": "300 E Ocean Blvd",
      "zip": "90802",
      "latitude": 33.7619,
      "longitude": -118.1897,
      "start_date": "2026-04-10",
      "end_date": "2026-04-11",
      "source_url": "https://news.formulad.com/",
      "cost_text": "$40-100",
      "is_free": false,
      "scope": "national",
      "featured": true,
      "description": "Formula Drift PRO Championship Round 1 on the Streets of Long Beach."
    },
    {
      "name": "Formula Drift Road Atlanta 2026",
      "event_type": "track-day",
      "city": "Braselton",
      "state": "GA",
      "venue_name": "Road Atlanta",
      "address": "5300 Winder Hwy",
      "zip": "30517",
      "latitude": 34.1468,
      "longitude": -83.8113,
      "start_date": "2026-05-07",
      "end_date": "2026-05-09",
      "source_url": "https://news.formulad.com/",
      "cost_text": "$40-100",
      "is_free": false,
      "scope": "national",
      "featured": true,
      "description": "Formula Drift PRO Championship at Road Atlanta."
    },
    {
      "name": "Formula Drift Orlando 2026",
      "event_type": "track-day",
      "city": "Orlando",
      "state": "FL",
      "venue_name": "Orlando Speed World",
      "address": "19164 E Colonial Dr",
      "zip": "32833",
      "latitude": 28.5383,
      "longitude": -81.0625,
      "start_date": "2026-05-29",
      "end_date": "2026-05-30",
      "source_url": "https://news.formulad.com/",
      "cost_text": "$40-100",
      "is_free": false,
      "scope": "national",
      "featured": true,
      "description": "Formula Drift PRO Championship at Orlando Speed World."
    },
    {
      "name": "NHRA Gatornationals 2026",
      "event_type": "track-day",
      "city": "Gainesville",
      "state": "FL",
      "venue_name": "Gainesville Raceway",
      "address": "11211 N County Road 225",
      "zip": "32609",
      "latitude": 29.7272,
      "longitude": -82.2978,
      "start_date": "2026-03-05",
      "end_date": "2026-03-08",
      "source_url": "https://www.nhra.com/",
      "cost_text": "$40-150",
      "is_free": false,
      "scope": "national",
      "featured": true,
      "description": "57th annual NHRA Gatornationals. NHRA 75th anniversary season opener."
    },
    {
      "name": "NHRA Winternationals 2026",
      "event_type": "track-day",
      "city": "Pomona",
      "state": "CA",
      "venue_name": "In-N-Out Burger Pomona Dragstrip",
      "address": "2780 Fairplex Dr",
      "zip": "91768",
      "latitude": 34.0867,
      "longitude": -117.7617,
      "start_date": "2026-04-09",
      "end_date": "2026-04-12",
      "source_url": "https://www.nhra.com/",
      "cost_text": "$40-150",
      "is_free": false,
      "scope": "national",
      "featured": true,
      "description": "66th annual NHRA Winternationals at Pomona Dragstrip."
    }
  ]
}









