{
  "description": "Track day and HPDE events at major US venues for 2026",
  "source": "Chin Track Days, NASA, HOD research December 2024",
  "updated": "2024-12-17",
  "events": [
    {
      "name": "Chin Track Days - Homestead Miami January",
      "event_type": "track-day",
      "city": "Homestead",
      "state": "FL",
      "start_date": "2026-01-10",
      "end_date": "2026-01-11",
      "venue_name": "Homestead-Miami Speedway",
      "address": "1 Speedway Blvd",
      "zip": "33035",
      "latitude": 25.4517,
      "longitude": -80.4089,
      "source_url": "https://chintrackdays.com",
      "cost_text": "$300-500",
      "is_free": false,
      "scope": "regional",
      "featured": false,
      "description": "Wintertime HPDE at Homestead-Miami Speedway road course."
    },
    {
      "name": "Chin Track Days - COTA February",
      "event_type": "track-day",
      "city": "Austin",
      "state": "TX",
      "start_date": "2026-02-13",
      "end_date": "2026-02-15",
      "venue_name": "Circuit of the Americas",
      "address": "9201 Circuit of the Americas Blvd",
      "zip": "78617",
      "latitude": 30.1346,
      "longitude": -97.6358,
      "source_url": "https://chintrackdays.com",
      "cost_text": "$400-600",
      "is_free": false,
      "scope": "national",
      "featured": true,
      "description": "Texas season opener at F1 circuit including Saturday night laps."
    },
    {
      "name": "NASA Northeast Ice Breaker",
      "event_type": "track-day",
      "city": "Millville",
      "state": "NJ",
      "start_date": "2026-03-14",
      "end_date": "2026-03-15",
      "venue_name": "New Jersey Motorsports Park (Lightning)",
      "address": "8000 Dividing Creek Rd",
      "zip": "08332",
      "latitude": 39.3542,
      "longitude": -75.0692,
      "source_url": "https://nasane.com",
      "cost_text": "$350-500",
      "is_free": false,
      "scope": "regional",
      "featured": false,
      "description": "Season opener featuring HPDE and Competition School."
    },
    {
      "name": "NASA NorCal - Thunderhill April",
      "event_type": "track-day",
      "city": "Willows",
      "state": "CA",
      "start_date": "2026-04-11",
      "end_date": "2026-04-12",
      "venue_name": "Thunderhill Raceway Park",
      "address": "5250 CA-162",
      "zip": "95988",
      "latitude": 39.5391,
      "longitude": -122.3339,
      "source_url": "https://nasanorcal.com",
      "cost_text": "$350-500",
      "is_free": false,
      "scope": "regional",
      "featured": false,
      "description": "HPDE, Time Trial, and Sprint Racing on the 3-mile road course."
    },
    {
      "name": "Hooked On Driving - Pocono MEGA HPDE",
      "event_type": "track-day",
      "city": "Long Pond",
      "state": "PA",
      "start_date": "2026-05-02",
      "end_date": "2026-05-03",
      "venue_name": "Pocono Raceway",
      "address": "1234 Long Pond Rd",
      "zip": "18334",
      "latitude": 41.0557,
      "longitude": -75.5118,
      "source_url": "https://hookedondriving.com",
      "cost_text": "$400-550",
      "is_free": false,
      "scope": "regional",
      "featured": false,
      "description": "MEGA HPDE weekend at historic Pocono Raceway."
    },
    {
      "name": "SCDA - Palmer Motorsports Park May",
      "event_type": "track-day",
      "city": "Palmer",
      "state": "MA",
      "start_date": "2026-05-22",
      "end_date": "2026-05-22",
      "venue_name": "Palmer Motorsports Park",
      "address": "58 West Ware Rd",
      "zip": "01069",
      "latitude": 42.1889,
      "longitude": -72.2926,
      "source_url": "https://scda1.com",
      "cost_text": "$300-400",
      "is_free": false,
      "scope": "regional",
      "featured": false,
      "description": "New England HPDE at Palmer Motorsports Park."
    },
    {
      "name": "NASA Great Lakes - Autobahn September",
      "event_type": "track-day",
      "city": "Joliet",
      "state": "IL",
      "start_date": "2026-09-11",
      "end_date": "2026-09-13",
      "venue_name": "Autobahn Country Club",
      "address": "3795 W Route 66",
      "zip": "60431",
      "latitude": 41.4825,
      "longitude": -88.1556,
      "source_url": "https://nasagreatlakes.com",
      "cost_text": "$350-500",
      "is_free": false,
      "scope": "regional",
      "featured": false,
      "description": "No Speed Limit on the Autobahn featuring HPDE, Time Trial, Sprint Racing."
    },
    {
      "name": "NASA Northeast - Thunder at the Glen",
      "event_type": "track-day",
      "city": "Watkins Glen",
      "state": "NY",
      "start_date": "2026-10-09",
      "end_date": "2026-10-11",
      "venue_name": "Watkins Glen International",
      "address": "2790 County Route 16",
      "zip": "14891",
      "latitude": 42.3369,
      "longitude": -76.9275,
      "source_url": "https://nasane.com",
      "cost_text": "$400-600",
      "is_free": false,
      "scope": "national",
      "featured": true,
      "description": "Premier Northeast HPDE at legendary Watkins Glen."
    },
    {
      "name": "Chin Track Days - Road Atlanta November",
      "event_type": "track-day",
      "city": "Braselton",
      "state": "GA",
      "start_date": "2026-11-28",
      "end_date": "2026-11-29",
      "venue_name": "Road Atlanta",
      "address": "5300 Winder Hwy",
      "zip": "30517",
      "latitude": 34.1468,
      "longitude": -83.8113,
      "source_url": "https://chintrackdays.com",
      "cost_text": "$400-550",
      "is_free": false,
      "scope": "regional",
      "featured": false,
      "description": "Post-Thanksgiving Feast of Laps at Road Atlanta."
    },
    {
      "name": "Chin Track Days - Sebring December",
      "event_type": "track-day",
      "city": "Sebring",
      "state": "FL",
      "start_date": "2026-12-11",
      "end_date": "2026-12-13",
      "venue_name": "Sebring International Raceway",
      "address": "113 Midway Dr",
      "zip": "33870",
      "latitude": 27.4545,
      "longitude": -81.3484,
      "source_url": "https://chintrackdays.com",
      "cost_text": "$400-600",
      "is_free": false,
      "scope": "national",
      "featured": true,
      "description": "Season finale including Saturday night session at historic Sebring."
    },
    {
      "name": "TrackDaze - VIR Spring",
      "event_type": "track-day",
      "city": "Alton",
      "state": "VA",
      "start_date": "2026-04-17",
      "end_date": "2026-04-19",
      "venue_name": "Virginia International Raceway",
      "address": "1245 Pine Tree Rd",
      "zip": "24520",
      "latitude": 36.5667,
      "longitude": -79.2061,
      "source_url": "https://trackdaze.com",
      "cost_text": "$350-500",
      "is_free": false,
      "scope": "regional",
      "featured": false,
      "description": "Spring HPDE weekend at VIR's full course."
    },
    {
      "name": "NASA SoCal - Willow Springs May",
      "event_type": "track-day",
      "city": "Rosamond",
      "state": "CA",
      "start_date": "2026-05-16",
      "end_date": "2026-05-17",
      "venue_name": "Willow Springs International Raceway",
      "address": "3500 75th St W",
      "zip": "93560",
      "latitude": 34.9022,
      "longitude": -118.2406,
      "source_url": "https://nasasocal.com",
      "cost_text": "$300-450",
      "is_free": false,
      "scope": "regional",
      "featured": false,
      "description": "HPDE at America's oldest purpose-built road racing track."
    },
    {
      "name": "NASA Texas - MSR Houston",
      "event_type": "track-day",
      "city": "Angleton",
      "state": "TX",
      "start_date": "2026-03-21",
      "end_date": "2026-03-22",
      "venue_name": "MSR Houston",
      "address": "1 Performance Dr",
      "zip": "77515",
      "latitude": 29.2017,
      "longitude": -95.5358,
      "source_url": "https://nasatx.com",
      "cost_text": "$300-450",
      "is_free": false,
      "scope": "regional",
      "featured": false,
      "description": "HPDE at MSR Houston's 2.4-mile track."
    },
    {
      "name": "Hooked On Driving - Laguna Seca",
      "event_type": "track-day",
      "city": "Monterey",
      "state": "CA",
      "start_date": "2026-06-19",
      "end_date": "2026-06-21",
      "venue_name": "WeatherTech Raceway Laguna Seca",
      "address": "1021 Monterey Salinas Hwy",
      "zip": "93940",
      "latitude": 36.5841,
      "longitude": -121.7535,
      "source_url": "https://hookedondriving.com",
      "cost_text": "$500-700",
      "is_free": false,
      "scope": "national",
      "featured": true,
      "description": "Experience the famous Corkscrew at Laguna Seca."
    },
    {
      "name": "TrackDaze - Summit Point",
      "event_type": "track-day",
      "city": "Summit Point",
      "state": "WV",
      "start_date": "2026-05-08",
      "end_date": "2026-05-10",
      "venue_name": "Summit Point Motorsports Park",
      "address": "237 Summit Point Rd",
      "zip": "25446",
      "latitude": 39.2278,
      "longitude": -77.9703,
      "source_url": "https://trackdaze.com",
      "cost_text": "$300-450",
      "is_free": false,
      "scope": "regional",
      "featured": false,
      "description": "HPDE weekend in the DC/Baltimore region."
    },
    {
      "name": "NASA Southeast - Roebling Road",
      "event_type": "track-day",
      "city": "Savannah",
      "state": "GA",
      "start_date": "2026-04-04",
      "end_date": "2026-04-05",
      "venue_name": "Roebling Road Raceway",
      "address": "100 Vintage Dr",
      "zip": "31320",
      "latitude": 32.0758,
      "longitude": -81.3261,
      "source_url": "https://nasasoutheast.com",
      "cost_text": "$300-400",
      "is_free": false,
      "scope": "regional",
      "featured": false,
      "description": "HPDE at Savannah's Roebling Road."
    },
    {
      "name": "NASA Utah - Utah Motorsports Campus",
      "event_type": "track-day",
      "city": "Tooele",
      "state": "UT",
      "start_date": "2026-06-06",
      "end_date": "2026-06-07",
      "venue_name": "Utah Motorsports Campus",
      "address": "512 Sheep Lane",
      "zip": "84074",
      "latitude": 40.5858,
      "longitude": -112.3894,
      "source_url": "https://nasautah.com",
      "cost_text": "$350-500",
      "is_free": false,
      "scope": "regional",
      "featured": false,
      "description": "HPDE at the former Miller Motorsports Park."
    },
    {
      "name": "Chin Track Days - Barber Motorsports Park",
      "event_type": "track-day",
      "city": "Birmingham",
      "state": "AL",
      "start_date": "2026-04-25",
      "end_date": "2026-04-26",
      "venue_name": "Barber Motorsports Park",
      "address": "6030 Barber Motorsports Pkwy",
      "zip": "35094",
      "latitude": 33.5414,
      "longitude": -86.6203,
      "source_url": "https://chintrackdays.com",
      "cost_text": "$400-550",
      "is_free": false,
      "scope": "regional",
      "featured": true,
      "description": "HPDE at beautiful Barber Motorsports Park."
    },
    {
      "name": "Hooked On Driving - Sonoma Raceway",
      "event_type": "track-day",
      "city": "Sonoma",
      "state": "CA",
      "start_date": "2026-07-18",
      "end_date": "2026-07-19",
      "venue_name": "Sonoma Raceway",
      "address": "29355 Arnold Dr",
      "zip": "95476",
      "latitude": 38.1614,
      "longitude": -122.4550,
      "source_url": "https://hookedondriving.com",
      "cost_text": "$450-600",
      "is_free": false,
      "scope": "regional",
      "featured": false,
      "description": "Wine country HPDE at Sonoma Raceway."
    },
    {
      "name": "NASA Mid-Atlantic - NCM Motorsports Park",
      "event_type": "track-day",
      "city": "Bowling Green",
      "state": "KY",
      "start_date": "2026-08-08",
      "end_date": "2026-08-09",
      "venue_name": "NCM Motorsports Park",
      "address": "505 Corvette Dr",
      "zip": "42101",
      "latitude": 37.0081,
      "longitude": -86.3826,
      "source_url": "https://nasamidatlantic.com",
      "cost_text": "$350-500",
      "is_free": false,
      "scope": "regional",
      "featured": false,
      "description": "HPDE at the National Corvette Museum Motorsports Park."
    }
  ]
}

