{
  "description": "Track days and vintage racing expansion 2026 - SVRA, HSR, NASA",
  "verified_date": "2024-12-17",
  "events": [
    {
      "name": "SVRA SpeedTour Sebring 2026",
      "event_type": "track-day",
      "city": "Sebring",
      "state": "FL",
      "start_date": "2026-02-26",
      "end_date": "2026-03-01",
      "venue_name": "Sebring International Raceway",
      "address": "113 Midway Dr",
      "zip": "33870",
      "latitude": 27.4545,
      "longitude": -81.3484,
      "source_url": "https://svra.com/",
      "cost_text": "$400-800",
      "is_free": false,
      "scope": "national",
      "featured": true,
      "description": "SVRA SpeedTour vintage racing at Sebring. Season opener for vintage racing."
    },
    {
      "name": "SVRA SpeedTour Road Atlanta 2026",
      "event_type": "track-day",
      "city": "Braselton",
      "state": "GA",
      "start_date": "2026-03-12",
      "end_date": "2026-03-15",
      "venue_name": "Michelin Raceway Road Atlanta",
      "address": "5300 Winder Hwy",
      "zip": "30517",
      "latitude": 34.1468,
      "longitude": -83.8113,
      "source_url": "https://svra.com/",
      "cost_text": "$400-800",
      "is_free": false,
      "scope": "national",
      "featured": false,
      "description": "SVRA SpeedTour vintage racing at Road Atlanta."
    },
    {
      "name": "SVRA SpeedTour NOLA 2026",
      "event_type": "track-day",
      "city": "Avondale",
      "state": "LA",
      "start_date": "2026-04-09",
      "end_date": "2026-04-12",
      "venue_name": "NOLA Motorsports Park",
      "address": "11075 Nicolle Blvd",
      "zip": "70094",
      "latitude": 29.9038,
      "longitude": -90.1953,
      "source_url": "https://svra.com/",
      "cost_text": "$400-800",
      "is_free": false,
      "scope": "national",
      "featured": false,
      "description": "SVRA SpeedTour vintage racing at NOLA Motorsports Park."
    },
    {
      "name": "SVRA SpeedTour Sonoma 2026",
      "event_type": "track-day",
      "city": "Sonoma",
      "state": "CA",
      "start_date": "2026-04-23",
      "end_date": "2026-04-26",
      "venue_name": "Sonoma Raceway",
      "address": "29355 Arnold Dr",
      "zip": "95476",
      "latitude": 38.1610,
      "longitude": -122.4556,
      "source_url": "https://svra.com/",
      "cost_text": "$400-800",
      "is_free": false,
      "scope": "national",
      "featured": false,
      "description": "SVRA SpeedTour vintage racing at Sonoma Raceway."
    },
    {
      "name": "SVRA SpeedTour Road America 2026",
      "event_type": "track-day",
      "city": "Elkhart Lake",
      "state": "WI",
      "start_date": "2026-05-14",
      "end_date": "2026-05-17",
      "venue_name": "Road America",
      "address": "N7390 Hwy 67",
      "zip": "53020",
      "latitude": 43.7970,
      "longitude": -87.9892,
      "source_url": "https://svra.com/",
      "cost_text": "$400-800",
      "is_free": false,
      "scope": "national",
      "featured": true,
      "description": "SVRA SpeedTour vintage racing at Road America. 4-mile course."
    },
    {
      "name": "SVRA SpeedTour Lime Rock 2026",
      "event_type": "track-day",
      "city": "Lakeville",
      "state": "CT",
      "start_date": "2026-05-21",
      "end_date": "2026-05-23",
      "venue_name": "Lime Rock Park",
      "address": "60 White Hollow Rd",
      "zip": "06039",
      "latitude": 41.9284,
      "longitude": -73.3838,
      "source_url": "https://svra.com/",
      "cost_text": "$400-800",
      "is_free": false,
      "scope": "national",
      "featured": false,
      "description": "SVRA SpeedTour vintage racing at Lime Rock Park."
    },
    {
      "name": "SVRA SpeedTour Mid-Ohio 2026",
      "event_type": "track-day",
      "city": "Lexington",
      "state": "OH",
      "start_date": "2026-06-11",
      "end_date": "2026-06-14",
      "venue_name": "Mid-Ohio Sports Car Course",
      "address": "7721 Steam Corners Rd",
      "zip": "44904",
      "latitude": 40.6755,
      "longitude": -82.6364,
      "source_url": "https://svra.com/",
      "cost_text": "$400-800",
      "is_free": false,
      "scope": "national",
      "featured": false,
      "description": "SVRA SpeedTour vintage racing at Mid-Ohio."
    },
    {
      "name": "SVRA Brickyard Vintage Racing Invitational 2026",
      "event_type": "track-day",
      "city": "Indianapolis",
      "state": "IN",
      "start_date": "2026-06-18",
      "end_date": "2026-06-21",
      "venue_name": "Indianapolis Motor Speedway",
      "address": "4790 W 16th St",
      "zip": "46222",
      "latitude": 39.7948,
      "longitude": -86.2354,
      "source_url": "https://svra.com/",
      "cost_text": "$500-1000",
      "is_free": false,
      "scope": "national",
      "featured": true,
      "description": "SVRA Brickyard Vintage Racing Invitational at Indianapolis Motor Speedway. Race on the Brickyard!"
    },
    {
      "name": "SVRA SpeedTour NJMP 2026",
      "event_type": "track-day",
      "city": "Millville",
      "state": "NJ",
      "start_date": "2026-08-01",
      "end_date": "2026-08-02",
      "venue_name": "New Jersey Motorsports Park",
      "address": "8000 Dividing Creek Rd",
      "zip": "08332",
      "latitude": 39.3578,
      "longitude": -75.0784,
      "source_url": "https://svra.com/",
      "cost_text": "$400-700",
      "is_free": false,
      "scope": "national",
      "featured": false,
      "description": "SVRA SpeedTour vintage racing at New Jersey Motorsports Park."
    },
    {
      "name": "SVRA SpeedTour Watkins Glen 2026",
      "event_type": "track-day",
      "city": "Watkins Glen",
      "state": "NY",
      "start_date": "2026-09-10",
      "end_date": "2026-09-13",
      "venue_name": "Watkins Glen International",
      "address": "2790 County Route 16",
      "zip": "14891",
      "latitude": 42.3369,
      "longitude": -76.9275,
      "source_url": "https://svra.com/",
      "cost_text": "$400-800",
      "is_free": false,
      "scope": "national",
      "featured": true,
      "description": "SVRA SpeedTour vintage racing at Watkins Glen. US Vintage Grand Prix."
    },
    {
      "name": "SVRA SpeedTour VIR 2026",
      "event_type": "track-day",
      "city": "Alton",
      "state": "VA",
      "start_date": "2026-09-17",
      "end_date": "2026-09-20",
      "venue_name": "Virginia International Raceway",
      "address": "1245 Pine Tree Rd",
      "zip": "24520",
      "latitude": 36.5667,
      "longitude": -79.2069,
      "source_url": "https://svra.com/",
      "cost_text": "$400-800",
      "is_free": false,
      "scope": "national",
      "featured": false,
      "description": "SVRA SpeedTour vintage racing at VIR."
    },
    {
      "name": "SVRA SpeedTour Laguna Seca 2026",
      "event_type": "track-day",
      "city": "Salinas",
      "state": "CA",
      "start_date": "2026-10-02",
      "end_date": "2026-10-04",
      "venue_name": "WeatherTech Raceway Laguna Seca",
      "address": "1021 Monterey-Salinas Hwy",
      "zip": "93940",
      "latitude": 36.5841,
      "longitude": -121.7535,
      "source_url": "https://svra.com/",
      "cost_text": "$400-800",
      "is_free": false,
      "scope": "national",
      "featured": false,
      "description": "SVRA SpeedTour vintage racing at Laguna Seca."
    },
    {
      "name": "SVRA SpeedTour Barber 2026",
      "event_type": "track-day",
      "city": "Birmingham",
      "state": "AL",
      "start_date": "2026-10-16",
      "end_date": "2026-10-18",
      "venue_name": "Barber Motorsports Park",
      "address": "6030 Barber Motorsports Pkwy",
      "zip": "35094",
      "latitude": 33.5382,
      "longitude": -86.6155,
      "source_url": "https://svra.com/",
      "cost_text": "$400-800",
      "is_free": false,
      "scope": "national",
      "featured": false,
      "description": "SVRA SpeedTour vintage racing at Barber Motorsports Park."
    },
    {
      "name": "SVRA SpeedTour COTA 2026",
      "event_type": "track-day",
      "city": "Austin",
      "state": "TX",
      "start_date": "2026-11-05",
      "end_date": "2026-11-08",
      "venue_name": "Circuit of The Americas",
      "address": "9201 Circuit of the Americas Blvd",
      "zip": "78617",
      "latitude": 30.1346,
      "longitude": -97.6358,
      "source_url": "https://svra.com/",
      "cost_text": "$400-800",
      "is_free": false,
      "scope": "national",
      "featured": true,
      "description": "SVRA SpeedTour vintage racing at COTA. Season finale."
    },
    {
      "name": "HSR Classic 24 Hour at Daytona 2026",
      "event_type": "track-day",
      "city": "Daytona Beach",
      "state": "FL",
      "start_date": "2026-11-11",
      "end_date": "2026-11-15",
      "venue_name": "Daytona International Speedway",
      "address": "1801 W International Speedway Blvd",
      "zip": "32114",
      "latitude": 29.1852,
      "longitude": -81.0705,
      "source_url": "https://hsrrace.com/",
      "cost_text": "$500-1200",
      "is_free": false,
      "scope": "national",
      "featured": true,
      "description": "12th HSR Classic 24 Hour at Daytona. Ford honored marque. 24-hour vintage endurance race."
    },
    {
      "name": "NASA Northeast Ice Breaker NJMP 2026",
      "event_type": "track-day",
      "city": "Millville",
      "state": "NJ",
      "start_date": "2026-03-14",
      "end_date": "2026-03-15",
      "venue_name": "NJMP Lightning",
      "address": "8000 Dividing Creek Rd",
      "zip": "08332",
      "latitude": 39.3578,
      "longitude": -75.0784,
      "source_url": "https://nasane.com/",
      "cost_text": "$300-500",
      "is_free": false,
      "scope": "regional",
      "featured": false,
      "description": "NASA Northeast Ice Breaker. HPDE and Competition School."
    },
    {
      "name": "NASA Northeast Lime Rock 2026",
      "event_type": "track-day",
      "city": "Lakeville",
      "state": "CT",
      "start_date": "2026-04-11",
      "end_date": "2026-04-11",
      "venue_name": "Lime Rock Park",
      "address": "60 White Hollow Rd",
      "zip": "06039",
      "latitude": 41.9284,
      "longitude": -73.3838,
      "source_url": "https://nasane.com/",
      "cost_text": "$250-400",
      "is_free": false,
      "scope": "regional",
      "featured": false,
      "description": "NASA Northeast HPDE at Lime Rock Park."
    },
    {
      "name": "NASA Northeast Watkins Glen Spring 2026",
      "event_type": "track-day",
      "city": "Watkins Glen",
      "state": "NY",
      "start_date": "2026-04-24",
      "end_date": "2026-04-26",
      "venue_name": "Watkins Glen International",
      "address": "2790 County Route 16",
      "zip": "14891",
      "latitude": 42.3369,
      "longitude": -76.9275,
      "source_url": "https://nasane.com/",
      "cost_text": "$400-600",
      "is_free": false,
      "scope": "regional",
      "featured": false,
      "description": "NASA Northeast HPDE/Race/TT at Watkins Glen."
    },
    {
      "name": "NASA Northeast Lime Rock Summer 2026",
      "event_type": "track-day",
      "city": "Lakeville",
      "state": "CT",
      "start_date": "2026-07-17",
      "end_date": "2026-07-18",
      "venue_name": "Lime Rock Park",
      "address": "60 White Hollow Rd",
      "zip": "06039",
      "latitude": 41.9284,
      "longitude": -73.3838,
      "source_url": "https://nasane.com/",
      "cost_text": "$350-500",
      "is_free": false,
      "scope": "regional",
      "featured": false,
      "description": "NASA Northeast HPDE/Race/TT at Lime Rock."
    },
    {
      "name": "NASA Northeast Watkins Glen Fall 2026",
      "event_type": "track-day",
      "city": "Watkins Glen",
      "state": "NY",
      "start_date": "2026-10-09",
      "end_date": "2026-10-11",
      "venue_name": "Watkins Glen International",
      "address": "2790 County Route 16",
      "zip": "14891",
      "latitude": 42.3369,
      "longitude": -76.9275,
      "source_url": "https://nasane.com/",
      "cost_text": "$400-600",
      "is_free": false,
      "scope": "regional",
      "featured": false,
      "description": "NASA Northeast fall event at Watkins Glen."
    },
    {
      "name": "NASA Great Lakes NCM Bourbon Barrel 2026",
      "event_type": "track-day",
      "city": "Bowling Green",
      "state": "KY",
      "start_date": "2026-03-20",
      "end_date": "2026-03-22",
      "venue_name": "NCM Motorsports Park",
      "address": "505 Park St",
      "zip": "42101",
      "latitude": 36.9906,
      "longitude": -86.4292,
      "source_url": "https://nasagreatlakes.com/",
      "cost_text": "$350-550",
      "is_free": false,
      "scope": "regional",
      "featured": false,
      "description": "NASA Great Lakes Bourbon Barrel Round 1 at NCM Motorsports Park."
    },
    {
      "name": "NASA SoCal Chuckwalla 2026",
      "event_type": "track-day",
      "city": "Desert Center",
      "state": "CA",
      "start_date": "2026-02-21",
      "end_date": "2026-02-22",
      "venue_name": "Chuckwalla Valley Raceway",
      "address": "2705 Corn Springs Rd",
      "zip": "92239",
      "latitude": 33.6614,
      "longitude": -115.3567,
      "source_url": "https://nasasocal.com/",
      "cost_text": "$300-500",
      "is_free": false,
      "scope": "regional",
      "featured": false,
      "description": "NASA SoCal/Arizona crossover at Chuckwalla Valley Raceway."
    },
    {
      "name": "NASA SoCal Willow Springs Competition School 2026",
      "event_type": "track-day",
      "city": "Rosamond",
      "state": "CA",
      "start_date": "2026-03-21",
      "end_date": "2026-03-22",
      "venue_name": "Willow Springs International Raceway",
      "address": "3500 75th St W",
      "zip": "93560",
      "latitude": 34.8761,
      "longitude": -118.2258,
      "source_url": "https://nasasocal.com/",
      "cost_text": "$350-550",
      "is_free": false,
      "scope": "regional",
      "featured": false,
      "description": "NASA SoCal Competition School at Willow Springs."
    },
    {
      "name": "NASA SoCal Buttonwillow Classic Spring 2026",
      "event_type": "track-day",
      "city": "Buttonwillow",
      "state": "CA",
      "start_date": "2026-04-18",
      "end_date": "2026-04-19",
      "venue_name": "Buttonwillow Raceway Park",
      "address": "24551 Lerdo Hwy",
      "zip": "93206",
      "latitude": 35.4072,
      "longitude": -119.4400,
      "source_url": "https://nasasocal.com/",
      "cost_text": "$300-500",
      "is_free": false,
      "scope": "regional",
      "featured": false,
      "description": "NASA SoCal Buttonwillow Classic spring event."
    },
    {
      "name": "NASA California Cup Sonoma 2026",
      "event_type": "track-day",
      "city": "Sonoma",
      "state": "CA",
      "start_date": "2026-07-11",
      "end_date": "2026-07-12",
      "venue_name": "Sonoma Raceway",
      "address": "29355 Arnold Dr",
      "zip": "95476",
      "latitude": 38.1610,
      "longitude": -122.4556,
      "source_url": "https://nasasocal.com/",
      "cost_text": "$400-600",
      "is_free": false,
      "scope": "regional",
      "featured": true,
      "description": "NASA California Cup at Sonoma. NorCal/SoCal crossover championship event."
    },
    {
      "name": "NASA NorCal Sonoma March 2026",
      "event_type": "track-day",
      "city": "Sonoma",
      "state": "CA",
      "start_date": "2026-03-07",
      "end_date": "2026-03-08",
      "venue_name": "Sonoma Raceway",
      "address": "29355 Arnold Dr",
      "zip": "95476",
      "latitude": 38.1610,
      "longitude": -122.4556,
      "source_url": "https://nasanorcal.com/",
      "cost_text": "$350-550",
      "is_free": false,
      "scope": "regional",
      "featured": false,
      "description": "NASA NorCal season opener at Sonoma Raceway."
    },
    {
      "name": "NASA NorCal Thunderhill 2026",
      "event_type": "track-day",
      "city": "Willows",
      "state": "CA",
      "start_date": "2026-04-11",
      "end_date": "2026-04-12",
      "venue_name": "Thunderhill Raceway Park",
      "address": "5250 Hwy 162",
      "zip": "95988",
      "latitude": 39.5393,
      "longitude": -122.3320,
      "source_url": "https://nasanorcal.com/",
      "cost_text": "$350-550",
      "is_free": false,
      "scope": "regional",
      "featured": false,
      "description": "NASA NorCal at Thunderhill Raceway Park."
    },
    {
      "name": "NASA Championships Sebring 2026",
      "event_type": "track-day",
      "city": "Sebring",
      "state": "FL",
      "start_date": "2026-09-24",
      "end_date": "2026-09-27",
      "venue_name": "Sebring International Raceway",
      "address": "113 Midway Dr",
      "zip": "33870",
      "latitude": 27.4545,
      "longitude": -81.3484,
      "source_url": "https://drivenasa.com/",
      "cost_text": "$600-1000",
      "is_free": false,
      "scope": "national",
      "featured": true,
      "description": "NASA National Championships at Sebring. Crown NASA's national champions."
    }
  ]
}

