{
  "description": "VERIFIED 2026 automotive events with confirmed dates from official sources",
  "verified_date": "2024-12-17",
  "events": [
    {
      "name": "Mecum Kissimmee 2026",
      "event_type": "auction",
      "city": "Kissimmee",
      "state": "FL",
      "start_date": "2026-01-06",
      "end_date": "2026-01-18",
      "venue_name": "Osceola Heritage Park",
      "address": "1875 Silver Spur Ln",
      "zip": "34744",
      "latitude": 28.3058,
      "longitude": -81.4162,
      "source_url": "https://www.mecum.com/auctions/kissimmee-2026/",
      "cost_text": "$30-100",
      "is_free": false,
      "scope": "national",
      "featured": true,
      "description": "World's largest collector car auction. 4,500+ vehicles including classic muscle cars, Corvettes, and exotics.",
      "verified": true,
      "source_verified": "https://www.experiencekissimmee.com/event/mecum-kissimmee-2026/27976"
    },
    {
      "name": "Detroit Auto Show 2026",
      "event_type": "industry",
      "city": "Detroit",
      "state": "MI",
      "start_date": "2026-01-14",
      "end_date": "2026-01-25",
      "venue_name": "Huntington Place",
      "address": "1 Washington Blvd",
      "zip": "48226",
      "latitude": 42.3293,
      "longitude": -83.0498,
      "source_url": "https://detroitautoshow.com/",
      "cost_text": "$20-50",
      "is_free": false,
      "scope": "national",
      "featured": true,
      "description": "North American International Auto Show. Media Days Jan 14-15, Charity Preview Jan 16, Public Show Jan 17-25.",
      "verified": true,
      "source_verified": "https://detroitautoshow.com/"
    },
    {
      "name": "Barrett-Jackson Scottsdale 2026",
      "event_type": "auction",
      "city": "Scottsdale",
      "state": "AZ",
      "start_date": "2026-01-18",
      "end_date": "2026-01-26",
      "venue_name": "WestWorld of Scottsdale",
      "address": "16601 N Pima Rd",
      "zip": "85260",
      "latitude": 33.6251,
      "longitude": -111.8989,
      "source_url": "https://www.barrett-jackson.com/2026-scottsdale",
      "cost_text": "$50-150",
      "is_free": false,
      "scope": "national",
      "featured": true,
      "description": "World's greatest collector car auction. Rock The Block concert Jan 16 with Cole Swindell. Gates open 8am daily.",
      "verified": true,
      "source_verified": "https://www.barrett-jackson.com/2026-scottsdale"
    },
    {
      "name": "Rolex 24 at Daytona 2026",
      "event_type": "track-day",
      "city": "Daytona Beach",
      "state": "FL",
      "start_date": "2026-01-21",
      "end_date": "2026-01-25",
      "venue_name": "Daytona International Speedway",
      "address": "1801 W International Speedway Blvd",
      "zip": "32114",
      "latitude": 29.1852,
      "longitude": -81.0705,
      "source_url": "https://www.imsa.com/events/2026-rolex-24-at-daytona/",
      "cost_text": "$50-200",
      "is_free": false,
      "scope": "national",
      "featured": true,
      "description": "24-hour IMSA endurance race. Race starts Saturday Jan 24 at 1:40 PM ET, ends Sunday Jan 25 at 1:40 PM ET.",
      "verified": true,
      "source_verified": "https://www.imsa.com/weathertech/weathertech-2026-schedule/"
    },
    {
      "name": "RM Sotheby's Arizona 2026",
      "event_type": "auction",
      "city": "Phoenix",
      "state": "AZ",
      "start_date": "2026-01-23",
      "end_date": "2026-01-23",
      "venue_name": "Arizona Biltmore",
      "address": "2400 E Missouri Ave",
      "zip": "85016",
      "latitude": 33.5225,
      "longitude": -112.0155,
      "source_url": "https://rmsothebys.com/en/auctions/az26",
      "cost_text": "$100-300",
      "is_free": false,
      "scope": "national",
      "featured": true,
      "description": "RM Sotheby's 28th annual Arizona sale during Arizona Car Week. Free public preview, auction for registered bidders.",
      "verified": true,
      "source_verified": "https://arizonacarweek.org/event/rm-sothebys/"
    },
    {
      "name": "Amelia Island Concours d'Elegance 2026",
      "event_type": "car-show",
      "city": "Amelia Island",
      "state": "FL",
      "start_date": "2026-03-05",
      "end_date": "2026-03-08",
      "venue_name": "The Ritz-Carlton, Amelia Island",
      "address": "4750 Amelia Island Pkwy",
      "zip": "32034",
      "latitude": 30.5766,
      "longitude": -81.4423,
      "source_url": "https://www.ameliaconcours.com/",
      "cost_text": "$150-500",
      "is_free": false,
      "scope": "national",
      "featured": true,
      "description": "31st Amelia Concours d'Elegance. 250+ vehicles across 35+ classes. Honoree: Dario Franchitti MBE. Includes RADwood, Broad Arrow Auction.",
      "verified": true,
      "source_verified": "https://www.ameliaconcours.com/event"
    },
    {
      "name": "Gooding & Company Amelia Island 2026",
      "event_type": "auction",
      "city": "Amelia Island",
      "state": "FL",
      "start_date": "2026-03-05",
      "end_date": "2026-03-06",
      "venue_name": "Omni Amelia Island Resort",
      "address": "39 Beach Lagoon Rd",
      "zip": "32034",
      "latitude": 30.5766,
      "longitude": -81.4423,
      "source_url": "https://www.goodingco.com/auction/amelia-island-auctions-2026",
      "cost_text": "$100-300",
      "is_free": false,
      "scope": "national",
      "featured": false,
      "description": "Gooding & Company auction during Amelia Island Concours week.",
      "verified": true,
      "source_verified": "https://www.goodingco.com/auction/amelia-island-auctions-2026"
    },
    {
      "name": "RADwood Amelia Island 2026",
      "event_type": "car-show",
      "city": "Amelia Island",
      "state": "FL",
      "start_date": "2026-03-07",
      "end_date": "2026-03-07",
      "venue_name": "The Ritz-Carlton, Amelia Island",
      "address": "4750 Amelia Island Pkwy",
      "zip": "32034",
      "latitude": 30.5766,
      "longitude": -81.4423,
      "source_url": "https://radwood.com",
      "cost_text": "$30-50",
      "is_free": false,
      "scope": "regional",
      "featured": false,
      "description": "Celebration of 80s and 90s car culture with period-correct attire and music. Part of Amelia Island Concours week.",
      "verified": true,
      "source_verified": "https://www.ameliaconcours.com/event"
    },
    {
      "name": "Goodguys Spring Lone Star Nationals 2026",
      "event_type": "car-show",
      "city": "Fort Worth",
      "state": "TX",
      "start_date": "2026-03-06",
      "end_date": "2026-03-07",
      "venue_name": "Texas Motor Speedway",
      "address": "3545 Lone Star Cir",
      "zip": "76177",
      "latitude": 33.0372,
      "longitude": -97.2822,
      "source_url": "https://www.good-guys.com/events/2026-events",
      "cost_text": "$20-30",
      "is_free": false,
      "scope": "regional",
      "featured": false,
      "description": "16th LMC Truck Spring Lone Star Nationals presented by Old Air Products.",
      "verified": true,
      "source_verified": "https://www.good-guys.com/events/2026-events"
    },
    {
      "name": "SCCA Solo National Tour - Red Hills 2026",
      "event_type": "autocross",
      "city": "Moultrie",
      "state": "GA",
      "start_date": "2026-03-13",
      "end_date": "2026-03-15",
      "venue_name": "Spence Field",
      "address": "Spence Field",
      "zip": "31776",
      "latitude": 31.1496,
      "longitude": -83.7832,
      "source_url": "https://www.scca.com/pages/championship-tour",
      "cost_text": "$100-200",
      "is_free": false,
      "scope": "national",
      "featured": false,
      "description": "Tire Rack SCCA Solo National Tour event.",
      "verified": true,
      "source_verified": "https://www.scca.com/articles/2020108-looking-ahead-sccas-2026-national-solo-schedule-is-coming-at-you"
    },
    {
      "name": "Goodguys Spring Nationals Scottsdale 2026",
      "event_type": "car-show",
      "city": "Scottsdale",
      "state": "AZ",
      "start_date": "2026-03-13",
      "end_date": "2026-03-14",
      "venue_name": "WestWorld of Scottsdale",
      "address": "16601 N Pima Rd",
      "zip": "85260",
      "latitude": 33.6251,
      "longitude": -111.8989,
      "source_url": "https://www.good-guys.com/events/2026-events",
      "cost_text": "$20-30",
      "is_free": false,
      "scope": "regional",
      "featured": false,
      "description": "16th FiTech Fuel Injection Spring Nationals presented by Grundy Insurance.",
      "verified": true,
      "source_verified": "https://www.good-guys.com/events/2026-events"
    },
    {
      "name": "12 Hours of Sebring 2026",
      "event_type": "track-day",
      "city": "Sebring",
      "state": "FL",
      "start_date": "2026-03-18",
      "end_date": "2026-03-21",
      "venue_name": "Sebring International Raceway",
      "address": "113 Midway Dr",
      "zip": "33870",
      "latitude": 27.4545,
      "longitude": -81.3484,
      "source_url": "https://www.sebringraceway.com/events/mobil-1-twelve-hours-of-sebring-4/",
      "cost_text": "$50-200",
      "is_free": false,
      "scope": "national",
      "featured": true,
      "description": "74th Mobil 1 Twelve Hours of Sebring. America's oldest sports car race. IMSA WeatherTech Championship.",
      "verified": true,
      "source_verified": "https://www.sebringraceway.com/events/mobil-1-twelve-hours-of-sebring-4/"
    },
    {
      "name": "Goodguys All American Get-Together 2026",
      "event_type": "car-show",
      "city": "Pleasanton",
      "state": "CA",
      "start_date": "2026-03-28",
      "end_date": "2026-03-29",
      "venue_name": "Alameda County Fairgrounds",
      "address": "4501 Pleasanton Ave",
      "zip": "94566",
      "latitude": 37.6624,
      "longitude": -121.8747,
      "source_url": "https://www.good-guys.com/events/2026-events",
      "cost_text": "$20-30",
      "is_free": false,
      "scope": "regional",
      "featured": false,
      "description": "42nd All American Get-Together.",
      "verified": true,
      "source_verified": "https://www.good-guys.com/events/2026-events"
    },
    {
      "name": "SCCA Solo National Tour - Charlotte 2026",
      "event_type": "autocross",
      "city": "Charlotte",
      "state": "NC",
      "start_date": "2026-03-27",
      "end_date": "2026-03-29",
      "venue_name": "zMax Dragway",
      "address": "6570 Bruton Smith Blvd",
      "zip": "28027",
      "latitude": 35.3490,
      "longitude": -80.6790,
      "source_url": "https://www.scca.com/pages/championship-tour",
      "cost_text": "$100-200",
      "is_free": false,
      "scope": "national",
      "featured": false,
      "description": "Tire Rack SCCA Solo National Tour at zMax Dragway.",
      "verified": true,
      "source_verified": "https://www.scca.com/articles/2020108-looking-ahead-sccas-2026-national-solo-schedule-is-coming-at-you"
    },
    {
      "name": "Goodguys Del Mar Nationals 2026",
      "event_type": "car-show",
      "city": "Del Mar",
      "state": "CA",
      "start_date": "2026-04-10",
      "end_date": "2026-04-12",
      "venue_name": "Del Mar Fairgrounds",
      "address": "2260 Jimmy Durante Blvd",
      "zip": "92014",
      "latitude": 32.9595,
      "longitude": -117.2653,
      "source_url": "https://www.good-guys.com/events/2026-events",
      "cost_text": "$20-35",
      "is_free": false,
      "scope": "regional",
      "featured": false,
      "description": "25th Meguiar's Del Mar Nationals presented by FiTech Fuel Injection.",
      "verified": true,
      "source_verified": "https://www.good-guys.com/events/2026-events"
    },
    {
      "name": "Goodguys North Carolina Nationals 2026",
      "event_type": "car-show",
      "city": "Raleigh",
      "state": "NC",
      "start_date": "2026-04-17",
      "end_date": "2026-04-18",
      "venue_name": "North Carolina State Fairgrounds",
      "address": "1025 Blue Ridge Rd",
      "zip": "27607",
      "latitude": 35.7879,
      "longitude": -78.7134,
      "source_url": "https://www.good-guys.com/events/2026-events",
      "cost_text": "$20-30",
      "is_free": false,
      "scope": "regional",
      "featured": false,
      "description": "11th Griot's Garage North Carolina Nationals presented by TREMEC.",
      "verified": true,
      "source_verified": "https://www.good-guys.com/events/2026-events"
    },
    {
      "name": "Spring Carlisle 2026",
      "event_type": "car-show",
      "city": "Carlisle",
      "state": "PA",
      "start_date": "2026-04-22",
      "end_date": "2026-04-26",
      "venue_name": "Carlisle Fairgrounds",
      "address": "1000 Bryn Mawr Rd",
      "zip": "17013",
      "latitude": 40.2015,
      "longitude": -77.2088,
      "source_url": "https://carlisleevents.com/events/schedule",
      "cost_text": "$15-40",
      "is_free": false,
      "scope": "national",
      "featured": true,
      "description": "Spring Carlisle Collector Car Flea Market, Corral & Auction. One of the largest automotive flea markets.",
      "verified": true,
      "source_verified": "https://carlisleevents.com/events/schedule"
    },
    {
      "name": "Carlisle Import & Performance Nationals 2026",
      "event_type": "car-show",
      "city": "Carlisle",
      "state": "PA",
      "start_date": "2026-05-15",
      "end_date": "2026-05-16",
      "venue_name": "Carlisle Fairgrounds",
      "address": "1000 Bryn Mawr Rd",
      "zip": "17013",
      "latitude": 40.2015,
      "longitude": -77.2088,
      "source_url": "https://carlisleevents.com/events/schedule",
      "cost_text": "$15-30",
      "is_free": false,
      "scope": "national",
      "featured": false,
      "description": "1,700+ unique imported and performance vehicles including autocross and drifting.",
      "verified": true,
      "source_verified": "https://carlisleevents.com/events/schedule"
    },
    {
      "name": "Goodguys Legends of Hot Rodding 2026",
      "event_type": "car-show",
      "city": "Nashville",
      "state": "TN",
      "start_date": "2026-05-15",
      "end_date": "2026-05-16",
      "venue_name": "Nashville Fairgrounds",
      "address": "500 Wedgewood Ave",
      "zip": "37203",
      "latitude": 36.1371,
      "longitude": -86.7621,
      "source_url": "https://www.good-guys.com/events/2026-events",
      "cost_text": "$20-30",
      "is_free": false,
      "scope": "regional",
      "featured": false,
      "description": "1st BASF Legends of Hot Rodding - new Goodguys event for 2026.",
      "verified": true,
      "source_verified": "https://www.good-guys.com/events/2026-events"
    },
    {
      "name": "Carlisle Ford Nationals 2026",
      "event_type": "car-show",
      "city": "Carlisle",
      "state": "PA",
      "start_date": "2026-06-05",
      "end_date": "2026-06-07",
      "venue_name": "Carlisle Fairgrounds",
      "address": "1000 Bryn Mawr Rd",
      "zip": "17013",
      "latitude": 40.2015,
      "longitude": -77.2088,
      "source_url": "https://carlisleevents.com/events/schedule",
      "cost_text": "$15-35",
      "is_free": false,
      "scope": "national",
      "featured": true,
      "description": "World's largest all-Ford show featuring Ford, Lincoln, Mercury, and Euro Fords.",
      "verified": true,
      "source_verified": "https://carlisleevents.com/events/schedule",
      "brand_affinity": "Ford"
    },
    {
      "name": "Goodguys Southeastern Nationals 2026",
      "event_type": "car-show",
      "city": "Perry",
      "state": "GA",
      "start_date": "2026-06-12",
      "end_date": "2026-06-13",
      "venue_name": "Georgia National Fairgrounds",
      "address": "401 Larry Walker Pkwy",
      "zip": "31069",
      "latitude": 32.4582,
      "longitude": -83.7327,
      "source_url": "https://www.good-guys.com/events/2026-events",
      "cost_text": "$20-30",
      "is_free": false,
      "scope": "regional",
      "featured": false,
      "description": "26th Southeastern Nationals.",
      "verified": true,
      "source_verified": "https://www.good-guys.com/events/2026-events"
    },
    {
      "name": "70th Porsche Parade 2026",
      "event_type": "club-meetup",
      "city": "Lake Placid",
      "state": "NY",
      "start_date": "2026-06-14",
      "end_date": "2026-06-20",
      "venue_name": "Lake Placid",
      "address": "Lake Placid, NY",
      "zip": "12946",
      "latitude": 44.2795,
      "longitude": -73.9799,
      "source_url": "https://www.porscheparade.org/",
      "cost_text": "$300-600",
      "is_free": false,
      "scope": "national",
      "featured": true,
      "description": "70th Porsche Parade - Porsche Club of America annual convention. Registration opens January 2026.",
      "verified": true,
      "source_verified": "https://zone6.pca.org/event/porsche-parade-2026/",
      "brand_affinity": "Porsche"
    },
    {
      "name": "Carlisle GM Nationals 2026",
      "event_type": "car-show",
      "city": "Carlisle",
      "state": "PA",
      "start_date": "2026-06-19",
      "end_date": "2026-06-20",
      "venue_name": "Carlisle Fairgrounds",
      "address": "1000 Bryn Mawr Rd",
      "zip": "17013",
      "latitude": 40.2015,
      "longitude": -77.2088,
      "source_url": "https://carlisleevents.com/events/schedule",
      "cost_text": "$15-30",
      "is_free": false,
      "scope": "national",
      "featured": false,
      "description": "Celebrating 100 years of Pontiac. Pace Car display, C10s and Square Body trucks.",
      "verified": true,
      "source_verified": "https://carlisleevents.com/events/schedule",
      "brand_affinity": "GM"
    },
    {
      "name": "6 Hours of Watkins Glen 2026",
      "event_type": "track-day",
      "city": "Watkins Glen",
      "state": "NY",
      "start_date": "2026-06-25",
      "end_date": "2026-06-28",
      "venue_name": "Watkins Glen International",
      "address": "2790 County Route 16",
      "zip": "14891",
      "latitude": 42.3369,
      "longitude": -76.9275,
      "source_url": "https://www.imsa.com/weathertech/weathertech-2026-schedule/",
      "cost_text": "$50-150",
      "is_free": false,
      "scope": "national",
      "featured": false,
      "description": "IMSA WeatherTech SportsCar Championship 6-hour endurance race.",
      "verified": true,
      "source_verified": "https://www.imsa.com/weathertech/weathertech-2026-schedule/"
    },
    {
      "name": "Goodguys Heartland Nationals 2026",
      "event_type": "car-show",
      "city": "Des Moines",
      "state": "IA",
      "start_date": "2026-07-03",
      "end_date": "2026-07-05",
      "venue_name": "Iowa State Fairgrounds",
      "address": "3000 E Grand Ave",
      "zip": "50317",
      "latitude": 41.5934,
      "longitude": -93.5649,
      "source_url": "https://www.good-guys.com/events/2026-events",
      "cost_text": "$20-35",
      "is_free": false,
      "scope": "regional",
      "featured": false,
      "description": "35th Speedway Motors Heartland Nationals.",
      "verified": true,
      "source_verified": "https://www.good-guys.com/events/2026-events"
    },
    {
      "name": "Carlisle Chrysler Nationals 2026",
      "event_type": "car-show",
      "city": "Carlisle",
      "state": "PA",
      "start_date": "2026-07-10",
      "end_date": "2026-07-12",
      "venue_name": "Carlisle Fairgrounds",
      "address": "1000 Bryn Mawr Rd",
      "zip": "17013",
      "latitude": 40.2015,
      "longitude": -77.2088,
      "source_url": "https://carlisleevents.com/events/schedule",
      "cost_text": "$15-35",
      "is_free": false,
      "scope": "national",
      "featured": true,
      "description": "World's largest all-Mopar-themed car show. Celebrating 55 years of the 1971 Plymouth Duster 340 and 100 years of Imperial.",
      "verified": true,
      "source_verified": "https://carlisleevents.com/events/schedule",
      "brand_affinity": "Chrysler"
    },
    {
      "name": "Goodguys Summit Racing Nationals 2026",
      "event_type": "car-show",
      "city": "Columbus",
      "state": "OH",
      "start_date": "2026-07-10",
      "end_date": "2026-07-12",
      "venue_name": "Ohio Expo Center",
      "address": "717 E 17th Ave",
      "zip": "43211",
      "latitude": 40.0012,
      "longitude": -82.9918,
      "source_url": "https://www.good-guys.com/events/2026-events",
      "cost_text": "$20-35",
      "is_free": false,
      "scope": "regional",
      "featured": false,
      "description": "28th Summit Racing Nationals.",
      "verified": true,
      "source_verified": "https://www.good-guys.com/events/2026-events"
    },
    {
      "name": "Goodguys Pacific Northwest Nationals 2026",
      "event_type": "car-show",
      "city": "Puyallup",
      "state": "WA",
      "start_date": "2026-07-24",
      "end_date": "2026-07-26",
      "venue_name": "Washington State Fair Events Center",
      "address": "110 9th Ave SW",
      "zip": "98371",
      "latitude": 47.1951,
      "longitude": -122.2929,
      "source_url": "https://www.good-guys.com/events/2026-events",
      "cost_text": "$20-35",
      "is_free": false,
      "scope": "regional",
      "featured": false,
      "description": "38th Griot's Garage Pacific Northwest Nationals presented by Wicked Fabrication.",
      "verified": true,
      "source_verified": "https://www.good-guys.com/events/2026-events"
    },
    {
      "name": "6 Hours of Road America 2026",
      "event_type": "track-day",
      "city": "Elkhart Lake",
      "state": "WI",
      "start_date": "2026-07-30",
      "end_date": "2026-08-02",
      "venue_name": "Road America",
      "address": "N7390 State Road 67",
      "zip": "53020",
      "latitude": 43.7973,
      "longitude": -87.9899,
      "source_url": "https://www.imsa.com/weathertech/weathertech-2026-schedule/",
      "cost_text": "$50-150",
      "is_free": false,
      "scope": "national",
      "featured": false,
      "description": "IMSA WeatherTech SportsCar Championship 6-hour endurance race at Road America.",
      "verified": true,
      "source_verified": "https://www.imsa.com/weathertech/weathertech-2026-schedule/"
    },
    {
      "name": "Carlisle Truck Nationals 2026",
      "event_type": "car-show",
      "city": "Carlisle",
      "state": "PA",
      "start_date": "2026-08-07",
      "end_date": "2026-08-09",
      "venue_name": "Carlisle Fairgrounds",
      "address": "1000 Bryn Mawr Rd",
      "zip": "17013",
      "latitude": 40.2015,
      "longitude": -77.2088,
      "source_url": "https://carlisleevents.com/events/schedule",
      "cost_text": "$15-35",
      "is_free": false,
      "scope": "national",
      "featured": false,
      "description": "Trucks of all shapes, sizes, and eras. Monster Truck shows and Big Rigs.",
      "verified": true,
      "source_verified": "https://carlisleevents.com/events/schedule"
    },
    {
      "name": "Monterey Car Week 2026",
      "event_type": "car-show",
      "city": "Monterey",
      "state": "CA",
      "start_date": "2026-08-07",
      "end_date": "2026-08-16",
      "venue_name": "Various Monterey Peninsula Venues",
      "address": "Monterey, CA",
      "zip": "93940",
      "latitude": 36.6002,
      "longitude": -121.8947,
      "source_url": "https://pebblebeachconcours.net/monterey-car-week/",
      "cost_text": "Varies by event",
      "is_free": false,
      "scope": "national",
      "featured": true,
      "description": "Week-long celebration of automotive excellence including auctions, shows, and races leading to Pebble Beach Concours.",
      "verified": true,
      "source_verified": "https://bih.pca.org/event/monterey-car-week/"
    },
    {
      "name": "RM Sotheby's Monterey 2026",
      "event_type": "auction",
      "city": "Monterey",
      "state": "CA",
      "start_date": "2026-08-12",
      "end_date": "2026-08-15",
      "venue_name": "Monterey Conference Center",
      "address": "1 Portola Plaza",
      "zip": "93940",
      "latitude": 36.6002,
      "longitude": -121.8947,
      "source_url": "https://rmsothebys.com/en/auctions/mo26",
      "cost_text": "$60-300",
      "is_free": false,
      "scope": "national",
      "featured": true,
      "description": "RM Sotheby's flagship Monterey auction during Pebble Beach week. Public preview 10am-4pm, auction at 5:30pm.",
      "verified": true,
      "source_verified": "https://whatsupmonterey.com/events/monterey-car-week/rm-sothebys-monterey/445"
    },
    {
      "name": "Gooding & Company Pebble Beach 2026",
      "event_type": "auction",
      "city": "Pebble Beach",
      "state": "CA",
      "start_date": "2026-08-14",
      "end_date": "2026-08-15",
      "venue_name": "Pebble Beach Equestrian Center",
      "address": "3300 Portola Rd",
      "zip": "93953",
      "latitude": 36.5725,
      "longitude": -121.9486,
      "source_url": "https://www.goodingco.com/auction/pebble-beach-auctions-2026",
      "cost_text": "$100-300",
      "is_free": false,
      "scope": "national",
      "featured": true,
      "description": "Gooding & Company Pebble Beach Auctions during Monterey Car Week.",
      "verified": true,
      "source_verified": "https://www.goodingco.com/auction/amelia-island-auctions-2026"
    },
    {
      "name": "75th Pebble Beach Concours d'Elegance 2026",
      "event_type": "car-show",
      "city": "Pebble Beach",
      "state": "CA",
      "start_date": "2026-08-16",
      "end_date": "2026-08-16",
      "venue_name": "Pebble Beach Golf Links",
      "address": "1700 17 Mile Dr",
      "zip": "93953",
      "latitude": 36.5725,
      "longitude": -121.9486,
      "source_url": "https://pebblebeachconcours.net/",
      "cost_text": "$500-1500",
      "is_free": false,
      "scope": "national",
      "featured": true,
      "description": "75th anniversary of the world's premier celebration of the automobile. Culmination of Monterey Car Week.",
      "verified": true,
      "source_verified": "https://www.pebblebeach.com/events/concours-delegance/"
    },
    {
      "name": "Goodguys West Coast Nationals 2026",
      "event_type": "car-show",
      "city": "Pleasanton",
      "state": "CA",
      "start_date": "2026-08-21",
      "end_date": "2026-08-23",
      "venue_name": "Alameda County Fairgrounds",
      "address": "4501 Pleasanton Ave",
      "zip": "94566",
      "latitude": 37.6624,
      "longitude": -121.8747,
      "source_url": "https://www.good-guys.com/events/2026-events",
      "cost_text": "$20-35",
      "is_free": false,
      "scope": "regional",
      "featured": false,
      "description": "39th West Coast Nationals - one of the largest car shows on the West Coast.",
      "verified": true,
      "source_verified": "https://www.good-guys.com/events/2026-events"
    },
    {
      "name": "VIR GT Challenge 2026",
      "event_type": "track-day",
      "city": "Alton",
      "state": "VA",
      "start_date": "2026-08-21",
      "end_date": "2026-08-23",
      "venue_name": "Virginia International Raceway",
      "address": "1245 Pine Tree Rd",
      "zip": "24520",
      "latitude": 36.5667,
      "longitude": -79.2069,
      "source_url": "https://www.imsa.com/weathertech/weathertech-2026-schedule/",
      "cost_text": "$50-150",
      "is_free": false,
      "scope": "national",
      "featured": false,
      "description": "IMSA WeatherTech SportsCar Championship at Virginia International Raceway.",
      "verified": true,
      "source_verified": "https://www.imsa.com/weathertech/weathertech-2026-schedule/"
    },
    {
      "name": "Corvettes at Carlisle 2026",
      "event_type": "car-show",
      "city": "Carlisle",
      "state": "PA",
      "start_date": "2026-08-27",
      "end_date": "2026-08-29",
      "venue_name": "Carlisle Fairgrounds",
      "address": "1000 Bryn Mawr Rd",
      "zip": "17013",
      "latitude": 40.2015,
      "longitude": -77.2088,
      "source_url": "https://carlisleevents.com/events/schedule",
      "cost_text": "$15-35",
      "is_free": false,
      "scope": "national",
      "featured": true,
      "description": "World's largest Corvette car show. Thousands of Corvettes from all generations with autocross and exhaust contests.",
      "verified": true,
      "source_verified": "https://carlisleevents.com/events/schedule",
      "brand_affinity": "Chevrolet"
    },
    {
      "name": "SCCA Solo National Championships 2026",
      "event_type": "autocross",
      "city": "Lincoln",
      "state": "NE",
      "start_date": "2026-09-07",
      "end_date": "2026-09-11",
      "venue_name": "Lincoln Air Park",
      "address": "Lincoln Air Park",
      "zip": "68524",
      "latitude": 40.8507,
      "longitude": -96.7556,
      "source_url": "https://www.scca.com/pages/solo-national-championships",
      "cost_text": "$200-400",
      "is_free": false,
      "scope": "national",
      "featured": true,
      "description": "Tire Rack SCCA Solo National Championships - the pinnacle of American autocross competition.",
      "verified": true,
      "source_verified": "https://www.scca.com/articles/2020108-looking-ahead-sccas-2026-national-solo-schedule-is-coming-at-you"
    },
    {
      "name": "Goodguys Colorado Nationals 2026",
      "event_type": "car-show",
      "city": "Loveland",
      "state": "CO",
      "start_date": "2026-09-11",
      "end_date": "2026-09-13",
      "venue_name": "The Ranch Events Complex",
      "address": "5280 Arena Cir",
      "zip": "80538",
      "latitude": 40.4259,
      "longitude": -105.0569,
      "source_url": "https://www.good-guys.com/events/2026-events",
      "cost_text": "$20-35",
      "is_free": false,
      "scope": "regional",
      "featured": false,
      "description": "28th Griot's Garage Colorado Nationals.",
      "verified": true,
      "source_verified": "https://www.good-guys.com/events/2026-events"
    },
    {
      "name": "Goodguys Fall Lone Star Nationals 2026",
      "event_type": "car-show",
      "city": "Fort Worth",
      "state": "TX",
      "start_date": "2026-09-25",
      "end_date": "2026-09-26",
      "venue_name": "Texas Motor Speedway",
      "address": "3545 Lone Star Cir",
      "zip": "76177",
      "latitude": 33.0372,
      "longitude": -97.2822,
      "source_url": "https://www.good-guys.com/events/2026-events",
      "cost_text": "$20-30",
      "is_free": false,
      "scope": "regional",
      "featured": false,
      "description": "33rd Summit Racing Lone Star Nationals.",
      "verified": true,
      "source_verified": "https://www.good-guys.com/events/2026-events"
    },
    {
      "name": "Fall Carlisle 2026",
      "event_type": "car-show",
      "city": "Carlisle",
      "state": "PA",
      "start_date": "2026-09-30",
      "end_date": "2026-10-04",
      "venue_name": "Carlisle Fairgrounds",
      "address": "1000 Bryn Mawr Rd",
      "zip": "17013",
      "latitude": 40.2015,
      "longitude": -77.2088,
      "source_url": "https://carlisleevents.com/events/schedule",
      "cost_text": "$15-40",
      "is_free": false,
      "scope": "national",
      "featured": true,
      "description": "Fall Carlisle Collector Car Flea Market, Corral & Auction. Vast selection of car parts, memorabilia, and two-day auction.",
      "verified": true,
      "source_verified": "https://carlisleevents.com/events/schedule"
    },
    {
      "name": "Petit Le Mans 2026",
      "event_type": "track-day",
      "city": "Braselton",
      "state": "GA",
      "start_date": "2026-09-30",
      "end_date": "2026-10-03",
      "venue_name": "Michelin Raceway Road Atlanta",
      "address": "5300 Winder Hwy",
      "zip": "30517",
      "latitude": 34.1468,
      "longitude": -83.8113,
      "source_url": "https://www.michelinracewayroadatlanta.com/motul-petit-le-mans",
      "cost_text": "$50-200",
      "is_free": false,
      "scope": "national",
      "featured": true,
      "description": "Motul Petit Le Mans - 10-hour IMSA endurance race. Season finale featuring FOX Factory 120, Kids Zone, car corrals, camping.",
      "verified": true,
      "source_verified": "https://www.michelinracewayroadatlanta.com/motul-petit-le-mans"
    },
    {
      "name": "SEMA Show 2026",
      "event_type": "industry",
      "city": "Las Vegas",
      "state": "NV",
      "start_date": "2026-11-03",
      "end_date": "2026-11-06",
      "venue_name": "Las Vegas Convention Center",
      "address": "3150 Paradise Rd",
      "zip": "89109",
      "latitude": 36.1318,
      "longitude": -115.1517,
      "source_url": "https://www.semashow.com/",
      "cost_text": "Trade only",
      "is_free": false,
      "scope": "national",
      "featured": true,
      "description": "World's largest automotive aftermarket trade show. Industry professionals only Tue-Thu, public access Friday Nov 6.",
      "verified": true,
      "source_verified": "https://www.semashow.com/home"
    },
    {
      "name": "Goodguys Autumn Get-Together 2026",
      "event_type": "car-show",
      "city": "Pleasanton",
      "state": "CA",
      "start_date": "2026-11-14",
      "end_date": "2026-11-15",
      "venue_name": "Alameda County Fairgrounds",
      "address": "4501 Pleasanton Ave",
      "zip": "94566",
      "latitude": 37.6624,
      "longitude": -121.8747,
      "source_url": "https://www.good-guys.com/events/2026-events",
      "cost_text": "$20-30",
      "is_free": false,
      "scope": "regional",
      "featured": false,
      "description": "36th Fuel Curve Autumn Get-Together.",
      "verified": true,
      "source_verified": "https://www.good-guys.com/events/2026-events"
    },
    {
      "name": "Goodguys Southwest Nationals 2026",
      "event_type": "car-show",
      "city": "Scottsdale",
      "state": "AZ",
      "start_date": "2026-11-20",
      "end_date": "2026-11-22",
      "venue_name": "WestWorld of Scottsdale",
      "address": "16601 N Pima Rd",
      "zip": "85260",
      "latitude": 33.6251,
      "longitude": -111.8989,
      "source_url": "https://www.good-guys.com/events/2026-events",
      "cost_text": "$20-35",
      "is_free": false,
      "scope": "regional",
      "featured": false,
      "description": "29th Speedway Motors Southwest Nationals.",
      "verified": true,
      "source_verified": "https://www.good-guys.com/events/2026-events"
    },
    {
      "name": "PRI Show 2026",
      "event_type": "industry",
      "city": "Indianapolis",
      "state": "IN",
      "start_date": "2026-12-10",
      "end_date": "2026-12-12",
      "venue_name": "Indiana Convention Center",
      "address": "100 S Capitol Ave",
      "zip": "46225",
      "latitude": 39.7640,
      "longitude": -86.1641,
      "source_url": "https://www.performanceracing.com/trade-show/",
      "cost_text": "Trade only (PRI membership required)",
      "is_free": false,
      "scope": "national",
      "featured": true,
      "description": "Performance Racing Industry Trade Show. Thu-Fri 9am-5pm, Sat 9am-4pm. Registration opens July 2026.",
      "verified": true,
      "source_verified": "https://www.performanceracing.com/trade-show/attend/show-schedule"
    }
  ]
}

